teatro_id,teatro_nombre,teatro_fecha_fundacion,teatro_adscripcion,estado_id,nom_ent,municipio_id,nom_mun,localidad_id,nom_loc,teatro_calle_numero,teatro_colonia,teatro_cp,teatro_telefono1,pagina_web,facebook,twitter,instagram,email,gmaps_longitud,gmaps_latitud,teatro_aforo,teatro_tipo_escenario,link_sic,fecha_mod
336,"Teatro de la Alameda ","1945-10-01","Gobierno del Estado de Aguascalientes",1,"Aguascalientes",1,"Aguascalientes",1,"Aguascalientes","Av. de la Convención Ote. 102 esq. Alameda","Col. Del Trabajo","20180","449 910 25 25 ext. 5296","","","","","alejandrina.rodriguez@aguascalientes.gob.mx",-102.27296,21.88444,396,"italiano","http://sic.gob.mx/ficha.php?table=teatro&table_id=336","2020-10-09 14:17:49-05"
334,"Teatro Antonio Leal y Romero","1986-01-01","Instituto Cultural de Aguascalientes",1,"Aguascalientes",1,"Aguascalientes",1,"Aguascalientes","Venustiano Carranza 101","Centro","20000","449 916 61 28","https://www.aguascalientes.gob.mx/Temas/Cultura/","https://www.facebook.com/InstitutoCulturaldeAguascalientes","CulturaAgs","https://www.instagram.com/ica_cultura/","josereynosomtz@hotmail.com",-102.29846,21.88049,247,"italiano","http://sic.gob.mx/ficha.php?table=teatro&table_id=334","2024-10-04 12:50:19-06"
78,"Teatro Francisco Gabilondo Soler Cri-Cri","1989-05-24","Gobierno del Estado de Aguascalientes/Secretaría de Sustentabilidad, Medio Ambiente y Agua",1,"Aguascalientes",1,"Aguascalientes",1,"Aguascalientes","Int. Centro de Recreación Ambiental, Cultura y Recreativo Rodolfo Landeros Gallegos, Blvd. José María Chávez s/n","Col. Ciudad Industrial","20290","(449) 978 51 06","","","","","jorge.villa@aguascalientes.gob.mx; brenda.rodriguezm@aguascalientes.gob.mx",-102.28886,21.85357,248,"circular","http://sic.gob.mx/ficha.php?table=teatro&table_id=78","2020-02-11 05:33:58-06"
329,"Teatro Morelos","1885-10-25","Instituto Cultural de Aguascalientes",1,"Aguascalientes",1,"Aguascalientes",1,"Aguascalientes","Nieto 113, Plaza de la Convención","Centro","20000","449 916 61 28","https://www.travelbymexico.com/aguascalientes/atractivos/?nom=eagsteatromore","","","","informacion.ica@gmail.com",-102.29702,21.88021,351,"italiano","http://sic.gob.mx/ficha.php?table=teatro&table_id=329","2025-04-03 14:11:26-06"
976,"Foro Cultural MUSE","1000-01-01","",1,"Aguascalientes",1,"Aguascalientes",1,"Aguascalientes","Ezequiel A. Chávez 307","","20000","449 115 60 16","https://museoeer.wixsite.com/muse/contacto","https://es-la.facebook.com/pg/FOROMUSE/about/?ref=page_internal","","","foromuseoescarcega@gmail.com; ricardo.gestioncultural@gmail.com",-102.28568,21.88466,0,"","http://sic.gob.mx/ficha.php?table=teatro&table_id=976","2020-09-24 16:58:36-05"
830,"Foro Cultural al Trote","1994-01-01","",1,"Aguascalientes",1,"Aguascalientes",1,"Aguascalientes","Héroes de Chapultepec 217","Barrio del Encino","20000","449 179 03 10","","https://www.facebook.com/Foro-Cultural-Al-Trote-372201562868199/about/","","https://www.instagram.com/explore/locations/1029219460/foro-cultural-al-trote/","contacto@altrote.com.mx",-102.29385,21.87843,0,"","http://sic.gob.mx/ficha.php?table=teatro&table_id=830","2023-12-06 06:56:17-06"
330,"Teatro Víctor Sandoval (antes Teatro del Parque)","1988-10-01","Instituto Cultural de Aguascalientes",1,"Aguascalientes",1,"Aguascalientes",1,"Aguascalientes","Av. Adolfo López Mateos s/n esq. Paseo de la Feria","Centro","20000","","http://www.aguascalientes.gob.mx/temas/cultura/espacios/teatros/victor.aspx","","","","josereynosomtz@hotmail.com",-102.30326,21.8768,454,"isabelino","http://sic.gob.mx/ficha.php?table=teatro&table_id=330","2021-10-28 07:28:30-05"
328,"Teatro Aguascalientes","1991-10-03","Instituto Cultural de Aguascalientes",1,"Aguascalientes",1,"Aguascalientes",1,"Aguascalientes","Av. De la Concepción esq. Sur y Blvd. José Ma. Chavez 1202","Col. Lindavista","20270","449 978 54 14","","https://www.facebook.com/InstitutoCulturaldeAguascalientes/","","","informacion.ica@gmail",-102.29235,21.85739,1589,"italiano","http://sic.gob.mx/ficha.php?table=teatro&table_id=328","2025-05-22 14:34:04-06"
335,"Foro La Puga","1994-11-01","Instituto Cultural de Aguascalientes (ICA)/Dirección de Educación Artística Básica",1,"Aguascalientes",1,"Aguascalientes",1,"Aguascalientes","Alameda 206 esq. Héroe de Nacozari","Barrio de La Purísima","20000","449 916 92 01","","","","","c.culturallosarquitos@gmail.com",-102.28177,21.88286,250,"italiano","http://sic.gob.mx/ficha.php?table=teatro&table_id=335","2020-10-01 15:52:43-05"
541,"Teatro de la Casa de Cultura de Asientos","1998-02-25","Instituto Cultural de Aguascalientes",1,"Aguascalientes",2,"Asientos",1,"Asientos","Av. Miguel Hidalgo s/n","Col. Infonavit","20712","496 967 30 78","","","","","informacion.ica@aguascalientes.gob.mx",-102.08958,22.23848,150,"semicircular","http://sic.gob.mx/ficha.php?table=teatro&table_id=541","2022-02-16 16:34:56-06"
542,"Teatro de la Casa de Cultura de Cosío","1993-03-01","Instituto Cultural de Aguascalientes",1,"Aguascalientes",4,"Cosío",1,"Cosío","Madero Nte. 5","Centro","20460","458 987 09 59","http://www.aguascalientes.gob.mx/temas/cultura/Noticias/Convocatorias/didactica.aspx","","","","informacion.ica@aguascalientes.gob.mx",-102.29747,22.36639,200,"rectangular","http://sic.gob.mx/ficha.php?table=teatro&table_id=542","2021-10-28 07:32:03-05"
869,"Teatro Bicentenario","1000-01-01","Ayuntamiento de Pabellón de Arteaga",1,"Aguascalientes",6,"Pabellón de Arteaga",1,"Pabellón de Arteaga","Plutarco Elías Calles s/n","Centro","20670","465 958 19 76","","","","","manuelalejandrosantana@municipio.gob.mx",-102.27675,22.14736,640,"Italiano","http://sic.gob.mx/ficha.php?table=teatro&table_id=869","2022-02-16 16:35:46-06"
307,"Teatro Universitario y de los Periodistas Benito Juárez","1985-01-01","Universidad Autónoma de Baja California (UABC), campus Ensenada",2,"Baja California",1,"Ensenada",1,"Ensenada","Km. 103 carr. Tijuana-Ensenada, Guadalupe entre 2a y 4a","Col. Obrera","22880","646)176 28 50","https://cultura.uabc.mx/campus-ensenada/","","","","teatroens@uabc.edu.mx",-116.61493,31.86137,407,"semicircular","http://sic.gob.mx/ficha.php?table=teatro&table_id=307","2023-11-16 05:58:03-06"
313,"Teatro de la Ciudad de Ensenada","1977-09-27","Instituto de Cultura de Baja California",2,"Baja California",1,"Ensenada",1,"Ensenada","Av. Diamante s/n","Fracc. Nueva Ensenada","22880","(646) 177 03 92","","","","","",-116.60852,31.85503,459,"italiano","http://sic.gob.mx/ficha.php?table=teatro&table_id=313","2016-12-14 13:29:02-06"
874,"Foro Experimental del CEART/Ensenada","2007-07-31","CEART/Instituto de Cultura de Baja California",2,"Baja California",1,"Ensenada",1,"Ensenada","Blvd. Lázaro Cárdenas y Av. Club Rotario","Centro","22880","(646) 173 43 07","","","","","",-116.61736,31.85707,200,"","http://sic.gob.mx/ficha.php?table=teatro&table_id=874","2016-12-14 14:53:35-06"
320,"Teatro al Aire Libre Riviera","1998-04-24","Centro Cultural Riviera de Ensenada",2,"Baja California",1,"Ensenada",1,"Ensenada","Blvd. Lázaro Cárdenas y Av. Riviera s/n","Centro","22800","(646) 176 43 10","http://rivieradeensenada.com.mx/espacios/","","","","director@rivieradeensenada.com.mx",-116.61835,31.85818,438,"italiano","http://sic.gob.mx/ficha.php?table=teatro&table_id=320","2018-05-09 16:09:19-05"
525,"Teatro IMSS Mexicali","1959-01-01","Instituto Mexicano del Seguro Social (IMSS), (en comodato)",2,"Baja California",2,"Mexicali",1,"Mexicali","Av. Zaragoza s/n","Col. Nueva","21100","(686) 564 77 59","","","","","teatro.mexicali@imss.gob.mx",-115.46804,32.66108,318,"italiano","http://sic.gob.mx/ficha.php?table=teatro&table_id=525","2017-05-25 12:33:28-05"
152,"Teatro al aire libre del Centro Comunitario Estudiantil","1991-08-01","Universidad Autónoma de Baja California (UABC), campus Mexicali/Vicerrectoría",2,"Baja California",2,"Mexicali",1,"Mexicali","Blvd. Benito Juárez s/n","Unidad Universitaria","21280","686 841 82 10 ext. 43001","","","","","isaac.coronado@uabc.edu.mx",-115.4447,32.63249,850,"italiano","http://sic.gob.mx/ficha.php?table=teatro&table_id=152","2023-11-07 06:12:56-06"
803,"Foro Experimental del CEART","2005-01-31","Instituto de Cultura de Baja California",2,"Baja California",2,"Mexicali",1,"Mexicali","Czda. de los Presidentes s/n esq. Ciudad Victoria","Zona del Río Nuevo","21150","686 553 6951 ext. 139","http://www.icbc.gob.mx","https://www.facebook.com/ceartmexicalibc/?locale=es_LA","","","ceartmexicali@hotmail.com",-115.48529,32.65089,150,"","http://sic.gob.mx/ficha.php?table=teatro&table_id=803","2025-06-10 11:32:10-06"
489,"Teatro del Estado","1977-10-01","Secretaría de Cultura del Estado de Baja California ",2,"Baja California",2,"Mexicali",1,"Mexicali","Av. Milton Castellanos esq. Blvd. Adolfo López Mateos 1112","Col. Industrial","21100","686  554 93 39 ext. 103","http://www.icbc.gob.mx","https://www.facebook.com/teatrodelestadoMXL","","","teatrodelestadobc@gmail.com",-115.47458,32.65482,1033,"italiano","http://sic.gob.mx/ficha.php?table=teatro&table_id=489","2025-03-10 14:17:36-06"
321,"Teatro Maestro Antonio Salvador Caldera Adame","1974-01-01","Ayuntamiento de Mexicali/Instituto Municipal de Arte y Cultura de Mexicali (IMACUM)",2,"Baja California",2,"Mexicali",1,"Mexicali","Av. Madero s/n esq. Altamirano","Centro","21100","686 552 96 30, 686 553 40 57","https://www.facebook.com/CasaDeLaCulturaDeMexicali","","","","jlfigueroa@mexicali.gob.mx; imacum@mexicali.gob.mx",-115.49096,32.66487,300,"rectangular","http://sic.gob.mx/ficha.php?table=teatro&table_id=321","2024-03-13 06:35:31-06"
314,"Teatro Benito Juárez del CREA Cultura","1962-06-24","Ayuntamiento de Mexicali/Instituto Municipal de Arte y Cultura de Mexicali (IMACUM)",2,"Baja California",2,"Mexicali",1,"Mexicali","Salina Cruz 2050 ","Col. Guajardo","21150","686 555 12 30","","","","","crea.cultura@gmail.com; jlfigueroa@mexicali.gob.mx; imacum@mexicali.gob.mx",-115.49831,32.64168,200,"rectangular","http://sic.gob.mx/ficha.php?table=teatro&table_id=314","2024-03-13 06:35:34-06"
147,"Teatro Universitario de Mexicali","1983-02-28","Universidad Autónoma de Baja California (UABC)",2,"Baja California",2,"Mexicali",1,"Mexicali","Av. López Rayón s/n","Unidad Universitaria","21280","686 841 82 42","","","","","aidearaiza@uabc.edu.mx",-115.44472,32.63391,540,"italiano","http://sic.gob.mx/ficha.php?table=teatro&table_id=147","2023-11-16 05:49:31-06"
56,"Teatro Conchita Sánchez Miramontes","1982-01-01"," Colegio de Bachilleres - Plantel Mexicali",2,"Baja California",2,"Mexicali",1,"Mexicali","Av.  Zaragoza 2045","Col. Nueva","21100","686  553 42 09","http://www.cobachbc.edu.mx/inicio","","","","mexicali@cobach.edu.mx",-115.45364,32.66257,100,"","http://sic.gob.mx/ficha.php?table=teatro&table_id=56","2023-09-25 05:32:08-06"
323,"Teatro al Aire Libre de Rectoría","1984-01-01","Universidad Autónoma de Baja California",2,"Baja California",2,"Mexicali",1,"Mexicali","Av. Álvaro Obregón y Julián Carrillo s/n","Col. Nueva Mexicalli","21100","686 553 4461","https://www.uabc.mx/","https://www.facebook.com/UABCInstitucional/","https://x.com/UABC_oficial","","rector@uabc.edu.mx",-115.46959,32.6634,700,"italiano","http://sic.gob.mx/ficha.php?table=teatro&table_id=323","2025-06-16 13:45:29-06"
254,"Teatro Universitario Tecate","1988-04-27","Universidad Autónoma de Baja California (UABC), campus Tecate/Coordinación de Extensión de la Cultura y Divulgación de la Ciencia",2,"Baja California",3,"Tecate",1,"Tecate","Calz. Universidad 1","Fracc. San Fernando","21450","665 654 24 04","https://www.facebook.com/artestecate","https://www.facebook.com/CulturaUABCTecate","","","teatrotkt@uabc.edu.mx",-116.62699,32.56883,800,"Italiano, rectangular","http://sic.gob.mx/ficha.php?table=teatro&table_id=254","2023-11-21 03:26:42-06"
287,"Teatro del Pueblo del Parque Adolfo López Mateos","1959-08-20","Ayuntamiento de Tecate/Dirección de Obras y Servicios Públicos Municipales",2,"Baja California",3,"Tecate",1,"Tecate","Blvd. Universidad esq. Av. Piedra del Sol","Col. Militar","21460","665 654 9231","https://www.bajacalifornia.gob.mx/","","","","",-116.62458,32.56914,0,"","http://sic.gob.mx/ficha.php?table=teatro&table_id=287","2025-05-16 11:44:08-06"
311,"Teatro al Aire Libre del Parque Margarita Maza de Juárez","1981-12-10","Dirección de Obras y Servicios Públicos",2,"Baja California",3,"Tecate",1,"Tecate","Calle 5a núm. 11 esq. Dr. Arturo Guerra","Col. Benito Juárez","21480","665 654 9231","http://www.tecate.gob.mx","","","","",-116.63133,32.55737,0,"","http://sic.gob.mx/ficha.php?table=teatro&table_id=311","2025-06-11 10:38:04-06"
488,"Sala de Espectáculos del CECUT","1985-06-27","Secretaría de Cultura/CECUT",2,"Baja California",4,"Tijuana",1,"Tijuana","Av. Paseo de los Héroes 9350","Zona Urbana Río Tijuana","22010","664 687 9656","http://www.cecut.gob.mx/eespectaculos.php","","","","teatrocecut@cecut.gob.mx",-117.02374,32.5306,995,"Italiano","http://sic.gob.mx/ficha.php?table=teatro&table_id=488","2024-10-30 14:14:45-06"
305,"Teatro IMSS Tijuana","1962-06-04","Instituto Mexicano del Seguro Social (IMSS)",2,"Baja California",4,"Tijuana",1,"Tijuana","Av. General Antonio Cardenas s/n","Fracc. Aviación","22420","664 972 98 47 ext. 2855","https://www.facebook.com/pages/Teatro-IMSS-Tijuana/522699537844441","","","","francisco.salazar@imss.gob.mx",-117.00954,32.51483,302,"Italiano","http://sic.gob.mx/ficha.php?table=teatro&table_id=305","2024-11-01 12:36:38-06"
148,"Teatro Universitario Rubén Vizcaíno Valencia","1976-01-01","Universidad Autónoma de Baja California (UABC), campus Tijuana",2,"Baja California",4,"Tijuana",1,"Tijuana","Calz. Universidad 14418","Parque Industrial Internacional Tijuana","22390","664 979 75 17 ext. 53191","https://cultura.uabc.mx/cultura/teatro/teatro-universitario-ruben-vizcaino-valencia/","https://www.facebook.com/CulturaUABC/","","","cultura@uabc.edu.mx",-116.96651,32.53074,412,"frontal","http://sic.gob.mx/ficha.php?table=teatro&table_id=148","2024-10-31 10:05:40-06"
709,"Teatro Cala-Fórnix","1977-05-30","Instituto Tecnológico de Tijuana (ITT)",2,"Baja California",4,"Tijuana",1,"Tijuana","Calz. Tecnológico s/n","Fracc. Tomás Aquino","22414","664 607 84 00 ext. 190 y 260","https://www.tijuana.tecnm.mx/","","","","ajavier876@gmail.com; difusion@tectijuana.mx",-116.98796,32.53053,685,"italiano","http://sic.gob.mx/ficha.php?table=teatro&table_id=709","2024-10-31 11:57:09-06"
961,"La Alborada Centro Cultural","1000-01-01","",2,"Baja California",4,"Tijuana",1,"Tijuana","Av. Aguascalientes 2380","Col. Madero (Cacho)","22040","664 383 9160","","https://www.facebook.com/pg/La-Alborada-Centro-Cultural-149802891858962/about/?ref=page_internal","","","alborada286@gmail.com",-117.03027,32.52022,0,"","http://sic.gob.mx/ficha.php?table=teatro&table_id=961","2020-05-14 09:38:21-05"
316,"Teatro de la Casa de la Cultura de Tijuana","1977-10-19","Ayuntamiento de Tjuana/Instituto Municipal de Arte y Cultura (IMAC)",2,"Baja California",4,"Tijuana",1,"Tijuana","Av. París 5","Col. Altamira","22000","664 687 26 04","https://www.tijuana.gob.mx/","https://www.facebook.com/amigosCCT?locale=es_LA","","","imac.casaculturatj@gmail.com",-117.05212,32.53182,475,"Italiano","http://sic.gob.mx/ficha.php?table=teatro&table_id=316","2024-11-05 11:51:23-06"
991,"Teatro las Tablas","2004-01-01","Tijuana Hace Teatro",2,"Baja California",4,"Tijuana",1,"Tijuana","Unión 2191","Col. Zona Este","22000","664 848 23 78","https://teatrolastablas.com/","https://www.facebook.com/TeatroLasTablas","LasTablasTeatro","https://www.instagram.com/TeatroLasTablas","info@teatrolastablas.com",-117.02497,32.52272,40,"Italiano","http://sic.gob.mx/ficha.php?table=teatro&table_id=991","2024-10-30 15:05:14-06"
873,"Foro Experimental del CEART Rosarito","2016-04-06","Instituto de Cultura de Baja California",2,"Baja California",5,"Playas de Rosarito",1,"Playas de Rosarito","Paseo de la Cascada s/n","Fracc. La Cascada","22701","661 100 6338 ext. 306","","https://www.facebook.com/CEARTRosarito/about?locale=es_LA","","","marco.ceartrosarito@gmail.com",-117.04113,32.30501,160,"","http://sic.gob.mx/ficha.php?table=teatro&table_id=873","2025-05-12 13:49:04-06"
300,"Teatro Juárez","1910-09-15","Patronato de la Cultura de Baja California Sur, A.C.",3,"Baja California Sur",3,"La Paz",1,"La Paz","Belisario Domínguez s/n entre 16 de Septiembre e Independencia","Centro","23000","612 125 3097","https://culturabcs.gob.mx/recinto/23","https://www.facebook.com/p/Teatro-Ju%C3%A1rez-100064599613157/?_rdr","","","teatrojuarezlapaz@gmail.com; yosoyaltaira@hotmail.com",-110.31513,24.1621,289,"Italiano","http://sic.gob.mx/ficha.php?table=teatro&table_id=300","2025-03-25 14:04:37-06"
309,"Teatro al aire libre Profra. Rosaura Zapata Cano","1985-01-01","Instituto Sudcaliforniano de Cultura",3,"Baja California Sur",3,"La Paz",1,"La Paz","Navarro s/n entre Altamirano y Héroes de Independencia","Centro","23000","612 125 02 07","","","","","teatrolapaz@hotmail.com",-110.31801,24.14727,200,"","http://sic.gob.mx/ficha.php?table=teatro&table_id=309","2023-10-12 04:41:09-06"
244,"Teatro al Aire Libre Ignacio García Tellez (En remodelación)","1962-06-07","Centro de Seguridad Social del IMSS",3,"Baja California Sur",3,"La Paz",1,"La Paz","Álvaro Obregón entre Héroes del 47 y Colegio Militar","Col. Esterito","23020","(612) 123 67 00 exts. 31184, 31139","","","","","rafael.puppo@imss.gob.mx",-110.30713,24.17117,700,"Semicircular","http://sic.gob.mx/ficha.php?table=teatro&table_id=244","2016-12-16 11:13:54-06"
12,"Teatro de la Ciudad de La Paz","1987-01-01","Instituto Sudcaliforniano de Cultura",3,"Baja California Sur",3,"La Paz",1,"La Paz","Navarro s/n esq. Altamirano y Héroes de Independencia","Centro","23000","612 125 0207","https://culturabcs.gob.mx/recinto/12","","","","teatrolapaz@hotmail.com; teatrodelaciudadlapaz@gmail.com; eesartbcs@gmail.com",-110.31776,24.14702,1343,"italiano","http://sic.gob.mx/ficha.php?table=teatro&table_id=12","2024-04-29 10:43:04-06"
836,"Teatro-Espacio Angular Esterito","1979-12-01","Federación de Alianzas Francesas y Franco Mexicanas de México, A.C.",3,"Baja California Sur",3,"La Paz",1,"La Paz","Valentín Gomez Farias 525","Esterito","23070","612 122 2888","http://www.alianzafrancesa.org.mx/La-Paz/TEATRO-ESPACIO-ANGULAR-ESTERITO","","","","rubsando@uabcs.mx",-110.30307,24.16532,0,"","http://sic.gob.mx/ficha.php?table=teatro&table_id=836","2025-04-08 11:47:39-06"
17,"Teatro Cine General Manuel Márquez de León","1944-02-05","Patronato del Teatro Manuel Márquez de León, A.C.",3,"Baja California Sur",3,"La Paz",3,"Todos Santos","Legaspy s/n esq. Gral. Márquez de León e Hidalgo","Centro","23300","612 1450 225","https://culturabcs.gob.mx/recinto/22","https://www.facebook.com/p/Teatro-Gral-Manuel-M%C3%A1rquez-de-Le%C3%B3n-100083222347712/","","","hparra@prodigy.net.mx",-110.22545,23.45001,500,"italiano","http://sic.gob.mx/ficha.php?table=teatro&table_id=17","2024-04-19 08:33:08-06"
834,"Foro de la Casa de Cultura Alfredo Green González","1974-01-01","Ayuntamiento de Los Cabos",3,"Baja California Sur",8,"Los Cabos",1,"San José del Cabo","Blvd. Mijares 1413 esq. Álvaro Obregón","Centro","23400","624 146 98 36 ","https://www.culturabcs.gob.mx/recinto/40","https://www.facebook.com/casadecultura/?locale=es_LA","","","casadelacultura1974@gmail.com ",-109.69453,23.0633,0,"","http://sic.gob.mx/ficha.php?table=teatro&table_id=834","2025-03-25 10:39:28-06"
623,"Teatro Miguel Lomelí Ceseña (Cerrado por remodelación)","2007-03-19","Ayuntamiento de Los Cabos/Instituto de Cultura de Los Cabos",3,"Baja California Sur",8,"Los Cabos",1,"San José del Cabo","Zaragoza esq. Guerrero","Centro","23400","(624) 142 23 29","","","","","espacioculturaloscabos@hotmail.com",-109.69831,23.06161,0,"","http://sic.gob.mx/ficha.php?table=teatro&table_id=623","2017-03-11 19:01:25-06"
909,"Teatro Pabellón Cultural de la República Nabor García Aguirre","2011-03-31","Instituto de la Cultura y las Artes del Municipio de Los Cabos",3,"Baja California Sur",8,"Los Cabos",54,"Cabo San Lucas","Bvld. Marina Lote 8","Centro","23450","(624	) 243-17-07","https://www.facebook.com/PabellonCulturalDeLaRepublica/","","","","pabellon_cultural@hotmail.com.mx",-109.9121,22.87963,660,"","http://sic.gob.mx/ficha.php?table=teatro&table_id=909","2018-02-13 09:45:46-06"
774,"Teatro Manuel Ávila Cano","2011-12-02","Instituto de Cultura y Artes del Estado de Campeche/Unidad de Arte y Gestión/Centro Cultural el Claustro/Secretaría de Cultura de Campeche",4,"Campeche",2,"Campeche",1,"San Francisco de Campeche","Calle 12 núm. 173 entre 59 y 61 ","Centro","24000","981 816 29 57","http://www.culturacampeche.com","","","","elclasutro.operaciones@gmail.com",-90.53758,19.84408,80,"Italiano","http://sic.gob.mx/ficha.php?table=teatro&table_id=774","2024-03-13 07:20:33-06"
387,"Teatro de la Ciudad Francisco de Paula Toro","1834-09-15","Ayuntamiento de Campeche/Dirección de Fomento a la Cultura de Campeche",4,"Campeche",2,"Campeche",1,"San Francisco de Campeche","Calle 12 núm. 139  entre 51 y 53","Centro Histórico","24000","981 811 36 53","","https://www.facebook.com/culturacampeche","CulturaCampeche","https://www.instagram.com/explore/locations/283703671/teatro-francisco-paula-del-toro/","damy.9127@hotmail.com; direccion.cultura@municipiocampeche.gob.mx",-90.53461,19.84549,600,"Italiano, rectangular","http://sic.gob.mx/ficha.php?table=teatro&table_id=387","2025-04-24 12:28:41-06"
267,"Teatro Juan de la Cabada Vera ","1979-08-07","Instituto de Cultura y Artes del Estado de Campeche",4,"Campeche",2,"Campeche",1,"San Francisco de Campeche","Av. 16 de septiembre s/n y calle 53 s/n","Centro","24000","981 811 0008","","","","","teatrojuandelacabada@hotmail.com",-90.5367,19.84763,252,"Rectangular","http://sic.gob.mx/ficha.php?table=teatro&table_id=267","2024-05-02 11:49:09-06"
293,"Cine – Teatro Universitario Joaquín Lanz","1967-07-01","Universidad Autónoma de Campeche",4,"Campeche",2,"Campeche",1,"San Francisco de Campeche","Av. Agustín Melgar s/n esq. Juan de la Barrera y Calle 20","Col. Buenavista","24039","98 1160 2618","https://culturauac.uacam.mx/view/paginas/10","","","","japortil@uacam.mx",-90.55774,19.83046,235,"frontal","http://sic.gob.mx/ficha.php?table=teatro&table_id=293","2021-01-19 07:33:03-06"
266,"Teatro Ing. Ricardo Hernández Cárdenas","1957-01-01","Instituto Campechano Gobierno del Estado de Campeche",4,"Campeche",2,"Campeche",1,"San Francisco de Campeche","Calle 10 núm. 357 entre 63 y 65","Centro","24000","(981) 816 24 80 exts. 108,124","","","","","jmalcocer@hotmail.com",-90.54006,19.84377,350,"frontal","http://sic.gob.mx/ficha.php?table=teatro&table_id=266","2018-07-04 09:23:02-05"
304,"Teatro IMSS-SNTSS Campeche Teatro 401 Lic. Ignacio García Téllez","1967-07-27","Instituto Mexicano del Seguro Social (IMSS)",4,"Campeche",2,"Campeche",1,"San Francisco de Campeche","Av. López Mateos s/n esq. Talamantes","Centro","24000","(981) 811 22 11","","","","","luis.santamariav@imss.gob.mx",-90.53851,19.83907,252,"Italiano","http://sic.gob.mx/ficha.php?table=teatro&table_id=304","2018-07-04 08:55:05-05"
302,"Teatro Carmelita","1997-01-01","Ayuntamiento de Carmen/Dirección de Cultura",4,"Campeche",3,"Carmen",1,"Ciudad del Carmen","And. Arturo Shein Cárdenas s/n","Centro","24100","938 382 6210","","https://www.facebook.com/profile.php?id=100075967826219&locale=br_FR","","","teatrocarmelita@outlook.com; deccarmen2124@gmail.com",-91.83498,18.63912,941,"italiano","http://sic.gob.mx/ficha.php?table=teatro&table_id=302","2025-06-05 14:34:38-06"
153,"Teatro del Centro Cultural Universitario","1991-01-01","Universidad Autónoma del Carmen",4,"Campeche",3,"Carmen",1,"Ciudad del Carmen","Calle 31 s/n x 28","Centro","24100","(938) 382 78 16","","","","","",-91.83459,18.63859,0,"italiano","http://sic.gob.mx/ficha.php?table=teatro&table_id=153","2017-03-15 10:56:53-06"
260,"Teatro Auditorio Miguel Zepeda García","1967-07-27","Universidad Autónoma del Carmen",4,"Campeche",3,"Carmen",1,"Ciudad del Carmen","Calle 31 s/n esq. Calle 28","Centro","24100","938 382 7816","http://www.unacar.mx/","","","","",-91.83403,18.63811,670,"semicircular","http://sic.gob.mx/ficha.php?table=teatro&table_id=260","2025-04-16 10:15:21-06"
773,"Teatro al aire libre Francisco Gabilondo Soler","1986-07-15","Ayuntamiento del Carmen",4,"Campeche",3,"Carmen",1,"Ciudad del Carmen","Int. Zoológico Municipal<br>Av. Heroes del 21 de Abril s/n","Col. Playa Norte","24100","938 382 1387 ext. 2650","","","","","payaso_chiflon@outllok.com; payaso_chiflon@hotmail.com",-91.83847,18.65915,0,"","http://sic.gob.mx/ficha.php?table=teatro&table_id=773","2025-06-17 13:46:20-06"
790,"Teatro de la Ciudad Virgilio Barrera Vega","2007-05-01","Ayuntamiento de Champotón",4,"Campeche",4,"Champotón",1,"Champotón","Calle 32 s/n entre 25 y 27","Centro","24400","982 828 03 43 ","http://www.champoton.gob.mx","","","","municipio@champoton.gob.mx",-90.72333,19.35565,412,"rectangular","http://sic.gob.mx/ficha.php?table=teatro&table_id=790","2021-08-13 10:58:50-05"
917,"Cine Teatro Morón","2019-08-10","Ayuntamiento de Palizada",4,"Campeche",7,"Palizada",1,"Palizada","Ignacio Zaragoza 5","Centro","24200","","","https://www.facebook.com/GobiernoMunicipaldePalizada/","","","buzon@palizada.gob.mx",-92.08855,18.25448,300,"Italiano","http://sic.gob.mx/ficha.php?table=teatro&table_id=917","2025-03-10 13:55:09-06"
258,"Teatro Lic. Evaristo Pérez Arreola","1992-09-08","Municipio de Acuña",5,"Coahuila de Zaragoza",2,"Acuña",1,"Ciudad Acuña","Manuel Acuña s/n esq. Iturbide","Centro","26200","877 772 61 30","","","","","",-100.93679,29.31573,227,"rectangular","http://sic.gob.mx/ficha.php?table=teatro&table_id=258","2021-09-03 09:31:55-05"
687,"Teatro de Cámara del Teatro de la Ciudad de Monclova","2010-02-11","Universidad Autónoma de Coahuila/Coordinación General de Difusión y Patrimonio Cultural",5,"Coahuila de Zaragoza",18,"Monclova",1,"Monclova","Blvd. Harold R. Pape","Estancias de Santa Ana","25710","866 639 08 79","","","","","dpatriciavillarreal@uadec.edu.mx",-101.41404,26.944,183,"","http://sic.gob.mx/ficha.php?table=teatro&table_id=687","2025-05-22 17:26:38-06"
257,"Teatro IMSS Monclova","1962-11-22","Centro de Seguridad Social Monclova",5,"Coahuila de Zaragoza",18,"Monclova",1,"Monclova","Blvd. Harold R. Pape 405","Col. Guadalupe","25750","866 143 7653","","","","","juan.castilloca@imss.gob.mx",-101.42963,26.90253,355,"rectangular","http://sic.gob.mx/ficha.php?table=teatro&table_id=257","2024-05-16 10:01:36-06"
667,"Teatro de la Ciudad","2010-02-10","Universidad Autónoma de Coahuila/Coordinación General de Difusión y Patrimonio Cultural",5,"Coahuila de Zaragoza",18,"Monclova",1,"Monclova","Carretera 57, Monclova-Piedras Negras, Km.5","Estancias San Juan Bautista","25710","(866) 639 08 79","","","","","ismaeldiazga@gmail.com",-101.41427,26.94375,1061,"multimodal","http://sic.gob.mx/ficha.php?table=teatro&table_id=667","2016-07-28 15:43:49-05"
276,"Teatro Juárez (En remodelación)","1972-01-01","Presidencia Municipal",5,"Coahuila de Zaragoza",24,"Parras",1,"Parras de la Fuente","H. Colegio Militar s/n","Zona Centro","27980","842 422 00 14 ext. 111","","","","","",-102.18278,25.43806,230,"italiano","http://sic.gob.mx/ficha.php?table=teatro&table_id=276","2025-03-31 10:38:41-06"
894,"Auditorio del Centro Cultural Multimedia 2000","1000-01-01","",5,"Coahuila de Zaragoza",25,"Piedras Negras",1,"Piedras Negras","Av. Jardín 606 ","Fraccionamiento La Fuente","","878 783 7650","","https://www.facebook.com/CentroculturalMultimedia2000/about/?ref=page_internal","","","",-100.56174,28.70622,0,"","http://sic.gob.mx/ficha.php?table=teatro&table_id=894","2021-01-19 06:58:05-06"
133,"Teatro IMSS Piedras Negras","1970-04-06","Instituto Mexicano del Seguro Social (IMSS)",5,"Coahuila de Zaragoza",25,"Piedras Negras",1,"Piedras Negras","Blvd. Eliseo Mendoza Berrueto 3701","Col. Las Delicias","26070","(878) 783 07 64","","","","","francisco.gonzalezm@imss.gob.mx",-100.54668,28.67623,490,"rectangular","http://sic.gob.mx/ficha.php?table=teatro&table_id=133","2017-01-06 16:52:59-06"
284,"Teatro al Aire Libre Concha Acústica de Macroplaza","1969-10-31","Ayuntamiento de Piedras Negras",5,"Coahuila de Zaragoza",25,"Piedras Negras",1,"Piedras Negras","16 de Septiembre y Av. Monterrey","Centro","26010","878 792 5108","","","","","",-100.52922,28.70834,0,"","http://sic.gob.mx/ficha.php?table=teatro&table_id=284","2025-05-15 14:28:24-06"
746,"Teatro de la Ciudad José Manuel Maldonado","2011-12-03","Ayuntamiento de Piedras Negras",5,"Coahuila de Zaragoza",25,"Piedras Negras",1,"Piedras Negras","Prol. Blvd. República 306","Fracc. El Lago","26069","878 782 66 66 ext. 1040, 1011","http://www.piedrasnegras.gob.mx/category/teatro-jose-manuel-maldonado/","","","","karlacantu28@gmail.com",-100.56271,28.70552,793,"Italiano","http://sic.gob.mx/ficha.php?table=teatro&table_id=746","2021-10-05 12:50:29-05"
995,"Teatro Eulalio Gutiérrez","2009-12-11","Ayuntamiento de Ramos Arizpe/Dirección de Cultura",5,"Coahuila de Zaragoza",27,"Ramos Arizpe",1,"Ramos Arizpe","Gral. Charles s/n esq. David Martínez Soto","Col. Eulalio Gutiérrez","25903","844 488 0607","","","","","",-100.94641,25.53933,500,"","http://sic.gob.mx/ficha.php?table=teatro&table_id=995","2025-01-28 14:03:21-06"
200,"Concha Acústica de la Casa del Artesano","1987-01-01","Instituto Coahuilense de Cultura",5,"Coahuila de Zaragoza",30,"Saltillo",1,"Saltillo","Miguel Hidalgo Sur  359","Centro","25000","844 481 9944","","","","","",-101.00081,25.41916,0,"","http://sic.gob.mx/ficha.php?table=teatro&table_id=200","2025-04-23 09:50:20-06"
524,"Teatro IMSS Saltillo","1961-01-01","Instituto Mexicano del Seguro Social (IMSS)",5,"Coahuila de Zaragoza",30,"Saltillo",1,"Saltillo","Manuel Doblado s/n esq. Luis Gutiérrez","Zona Centro","25000","844 412 8233","","","","","raul.saldana@imss.gob.mx",-101.00852,25.4182,285,"italiano","http://sic.gob.mx/ficha.php?table=teatro&table_id=524","2025-04-22 13:29:00-06"
548,"Teatro de la Ciudad Fernando Soler","1979-03-26","Secretaría de Cultura del Estado de Coahuila de Zaragoza",5,"Coahuila de Zaragoza",30,"Saltillo",1,"Saltillo","Xicoténcatl esq. Blvd. Francisco Coss s/n","Zona Centro","25000","844 412 1947","https://carteleradeteatro.mx/teatro/centro/teatro-fernando-soler-centro-teatral-manolo-fabregas/https://carteleradeteatro.mx/teatro/centro/teatro-fernando-soler-centro-teatral-manolo-fabregas/","https://www.facebook.com/teatro.fernandosoler/?locale=es_LA","","","teatrofernandosoler@gmail.com",-101,25.4337,1143,"italiano","http://sic.gob.mx/ficha.php?table=teatro&table_id=548","2025-04-14 11:48:06-06"
982,"Rincón del Teatro ","1000-01-01","",5,"Coahuila de Zaragoza",30,"Saltillo",1,"Saltillo","Lic. Benito Juárez 591","Zona Centro","25000","844 130 2029","","https://www.facebook.com/pages/category/Artist/RINCON-DEL-TEATRO-301949583151053/","","","",-100.99737,25.42027,0,"","http://sic.gob.mx/ficha.php?table=teatro&table_id=982","2020-05-19 06:37:23-05"
549,"Teatro de Cámara ","1978-01-01","Instituto Coahuilense de Cultura",5,"Coahuila de Zaragoza",30,"Saltillo",1,"Saltillo","Xicoténcatl esq. Blvd. Francisco Coss s/n","Zona Centro","25000","844 412 1947","","","","","teatrodelaciudadsaltillo@gmail.com",-101.00001,25.4337,100,"","http://sic.gob.mx/ficha.php?table=teatro&table_id=549","2025-05-19 16:55:07-06"
140,"Teatro de Cámara Remigio Valdés Gómez","2004-02-04","Universidad Autónoma de Coahuila",5,"Coahuila de Zaragoza",35,"Torreón",1,"Torreón","Blvd. Revolución 590 Ote","Centro","27000","871 729 3217","","","","","difusionuacut@hotmail.com",-103.44355,25.53551,304,"","http://sic.gob.mx/ficha.php?table=teatro&table_id=140","2025-05-08 14:21:33-06"
950,"Plan B. Estudio-Teatro","2015-05-27","",5,"Coahuila de Zaragoza",35,"Torreón",1,"Torreón","González Ortega 30 Nte.","Centro","27000","871 149 7682","","https://www.facebook.com/CarteleraPlanB/","PlanB_Estudio_T","","planbestudioteatro@gmail.com ",-103.44631,25.54145,60,"","http://sic.gob.mx/ficha.php?table=teatro&table_id=950","2023-12-15 05:58:49-06"
503,"Teatro Nazas ","2004-10-02","Patronato del Teatro Nazas, A.C.",5,"Coahuila de Zaragoza",35,"Torreón",1,"Torreón","Cepeda 155 Sur","Centro","27170","871 712 4756","http://www.teatronazas.com.mx","https://www.facebook.com/teatronazas/?locale=es_LA","","https://www.instagram.com/teatronazas/?hl=es","morebarrett2@gmail.com; teatronazasdireccion@gmail.com",-103.46193,25.53997,1445,"italiano","http://sic.gob.mx/ficha.php?table=teatro&table_id=503","2025-05-19 13:00:32-06"
277,"Teatro Isauro Martínez","1930-03-07","INBAL, Patronato del Teatro Isauro Martínez, A.C.",5,"Coahuila de Zaragoza",35,"Torreón",1,"Torreón","Av. Matamoros 250, Primero de Cobián","Centro","27000","871 192 08 39","https://teatroisauromartinez.mx/","https://www.facebook.com/teatroisauromartinez.mx/","","","patronatotim@gmail.com",-103.45226,25.5405,719,"italiano","http://sic.gob.mx/ficha.php?table=teatro&table_id=277","2025-06-16 14:34:40-06"
279,"Teatro Alfonso Garibay","1957-11-07","INBAL, Patronato del Teatro Isauro Martínez, A.C.",5,"Coahuila de Zaragoza",35,"Torreón",1,"Torreón","Av. Nicolás Bravo 245 Pte. entre Galeana y Jiménez","Centro","27000","871 192 0839","","https://www.facebook.com/profile.php?id=100046065776007","","https://www.instagram.com/teatroalfonsogaribay/?hl=es","patronatotim@gmail.com",-103.452,25.54524,188,"italiano","http://sic.gob.mx/ficha.php?table=teatro&table_id=279","2025-06-16 12:29:42-06"
890,"Teatro del Instituto de Música de Coahuila (INMUS)","2023-03-31","Gobierno del Estado de Coahuila/Instituto Nacional de Música de Coahuila",5,"Coahuila de Zaragoza",35,"Torreón",1,"Torreón","Prol. Colón esq. Galeana","Col. Nueva Aurora","27000"," 871 713 9962","https://www.facebook.com/inmus.coahuila/","","","","inmus.coahuila@gmail.com",-103.45332,25.53069,0,"","http://sic.gob.mx/ficha.php?table=teatro&table_id=890","2025-06-09 14:02:56-06"
10,"Teatro al Aire Libre de la Piedra Lisa","2009-01-01","Ayuntamiento de Colima/Complejo Recreativo, Cultural y Deportivo Piedra Lisa",6,"Colima",2,"Colima",1,"Colima","Calz. Galván s/n","Centro","28000","","","","","","",-103.71524,19.24044,300,"","http://sic.gob.mx/ficha.php?table=teatro&table_id=10","2021-09-08 09:54:58-05"
272,"Foro al Aire Libre del Parque Griselda Álvarez","1985-11-01","Gobierno del Estado de Colima",6,"Colima",2,"Colima",1,"Colima","Av. 20 de Noviembre esq. Belisario Domínguez","Centro","28070","331 312 3898","","","","","",-103.72795,19.23289,0,"","http://sic.gob.mx/ficha.php?table=teatro&table_id=272","2025-04-23 10:46:34-06"
224,"Teatro al Aire Libre El Rodeo","1979-10-07","Secretaría de Cultura del Gobierno del Estado de Colima",6,"Colima",2,"Colima",1,"Colima","Av. Niños Heroes","Equipamiento Urbano","28048","331 312 8431","","","","","",-103.67597,19.2347,2000,"","http://sic.gob.mx/ficha.php?table=teatro&table_id=224","2025-06-06 15:58:56-06"
268,"Teatro Hidalgo","1883-09-15","Secretaría de Cultura del Gobierno del Estado de Colima",6,"Colima",2,"Colima",1,"Colima","Independencia 78 esq. Degollado","Centro","28000","(312) 312 12 31","http://culturacolima.gob.mx/v2/teatrohidalgo/","","","","teatrohidalgocolima@gmail.com",-103.72972,19.24301,652,"italiano","http://sic.gob.mx/ficha.php?table=teatro&table_id=268","2016-11-24 13:08:06-06"
948,"Foro Pablo Silva García","2008-05-23","Universidad de Colima",6,"Colima",2,"Colima",1,"Colima","Gabino Barrera 420 esq. Manuel Gallardo","Col. Colima Centro","28000"," (312) 316 11 77","http://ww.ucol.mx/arteycultura/detalleRecinto.php?&nombre=Foro-Pablo-Silva-Garc%EDa&id=112","","","","culturales@ucol.mx",-103.72188,19.24907,245,"italiano","http://sic.gob.mx/ficha.php?table=teatro&table_id=948","2019-05-14 06:12:10-05"
557,"Teatro Universitario Coronel Pedro Torres Ortiz","2005-09-12","Universidad de Colima",6,"Colima",2,"Colima",1,"Colima","Carr. Colima-Guadalajara Km 3.5","El Diezmo","28019","(312) 316 11 77","http://www.ucol.mx/arteycultura/detalleRecinto.php?&nombre=Teatro-universitario-Coronel-Pedro-Torres-Ortiz&id=114","","","","jonathan_aparicio@ucol.mx; angira.02@gmail.com",-103.68599,19.26229,991,"italiano","http://sic.gob.mx/ficha.php?table=teatro&table_id=557","2019-05-13 10:52:10-05"
126,"Foro al Aire Libre de la Estancia","1000-01-01","Ayuntamiento de Colima",6,"Colima",2,"Colima",1,"Colima","Jardín Principal","Centro","28000","312 312 38 98","","","","","",-103.67934,19.23323,300,"","http://sic.gob.mx/ficha.php?table=teatro&table_id=126","2021-09-20 08:31:54-05"
20,"Teatro Emigdio T. Salgado Mares","1978-06-01","Instituto de Fomento de Ferias y Exposiciones del Gobierno del Estado de Colima",6,"Colima",2,"Colima",1,"Colima","Av. Niños Héroes de Chapultepec s/n esq. Gonzalo de Sandoval","Col. La Estancia","28610","312 313 1589","http://feriadecolima.com.mx","","","","iffecol@prodigy.net.mx",-103.68198,19.23656,4500,"","http://sic.gob.mx/ficha.php?table=teatro&table_id=20","2025-04-11 14:44:54-06"
808,"Teatro al aire libre Silverio Palacios","2008-06-01","Secretaría de Cultura del Estado de Colima",6,"Colima",2,"Colima",1,"Colima","Degollado y 20 de Noviembre, Parque Regional Metropolitano","Centro","28000","(312) 314 16 76","","","","","",-103.73412,19.23806,0,"","http://sic.gob.mx/ficha.php?table=teatro&table_id=808","2017-02-22 11:12:24-06"
273,"Teatro Alfonso Michel","1980-11-01","Secretaría de Cultura del Gobierno del Estado de Colima",6,"Colima",2,"Colima",1,"Colima","Calz. Galván esq. Ejército Nacional","Centro","28000","(312) 313 06 08","http://culturacolima.gob.mx/casa-de-la-cultura-de-colima/","","","","teatrohidalgocolima@gmail.com",-103.71435,19.24292,786,"italiano","http://sic.gob.mx/ficha.php?table=teatro&table_id=273","2024-03-12 08:49:39-06"
23,"Foro al Aire Libre del Parque Hidalgo","1985-11-01","Ayuntamiento de Colima / Dirección de Cultura",6,"Colima",2,"Colima",1,"Colima","Av. 20 de Noviembre esq. Belisario Domínguez","Centro","28070","(312) 312 38 98","","","","","culturacolima2009@hotmail.com",-103.72807,19.23279,0,"","http://sic.gob.mx/ficha.php?table=teatro&table_id=23","2017-02-22 11:24:27-06"
4,"Foro al Aire Libre del Malecón Espíritu Santo","1000-01-01","Ayuntamiento de Manzanillo",6,"Colima",7,"Manzanillo",1,"Manzanillo","Paseo del Espíritu Santo esq. Niños Héroes s/n","Centro","28200","","","","","","",-104.31098,19.0534,0,"","http://sic.gob.mx/ficha.php?table=teatro&table_id=4","2017-02-22 10:52:27-06"
547,"Foro al Aire Libre de Minatitlán","1000-01-01","Ayuntamiento de Minatitlán",6,"Colima",8,"Minatitlán",1,"Minatitlán","Jardín Principal","","28750","","","","","","",-104.0494,19.38602,0,"","http://sic.gob.mx/ficha.php?table=teatro&table_id=547","2017-02-22 10:49:20-06"
101,"Foro al Aire Libre de la Casa de Cultura de Tecomán","1000-01-01","Ayuntamiento de Colima",6,"Colima",9,"Tecomán",1,"Tecomán","Insurgentes 1000","Col. Tepeyac","28120","(313) 324 40 15","","","","","",-103.88333,18.92507,0,"","http://sic.gob.mx/ficha.php?table=teatro&table_id=101","2017-01-09 13:30:01-06"
143,"Teatro de la Ciudad Junchavín","1987-07-10","Gobierno del Estado de Chiapas / Ayuntamiento Municipal de Comitán de Domínguez",7,"Chiapas",19,"Comitán de Domínguez",1,"Comitán de Domínguez","1a. Calle Sur Poniente núm. 2","Centro","30000","963 632 0946","https://www.facebook.com/pages/Teatro-de-la-Ciudad-Junchavin/218062834983451?fref=ts","","","","bonioscar2001@yahoo.com.mx; bonioscar2001@hotmail.com.mx",-92.13569,16.25151,454,"italiano","http://sic.gob.mx/ficha.php?table=teatro&table_id=143","2024-08-30 14:36:35-06"
828,"Foro al aire libre Antonio Soler Oliver","1993-06-01","Dirección de Promoción Cultural/Consejo Estatal para las Culturas y las Artes de Chiapas (CONECULTA)",7,"Chiapas",68,"Pichucalco",1,"Pichucalco","Pípila 23 entre Aurora y Juan Ramos Teracena","Las Ranas, Centro","29540","932 323 0667","","","","","ccpichucalco@conecultachiapas.gob.mx",-93.11586,17.50913,150,"Italiano","http://sic.gob.mx/ficha.php?table=teatro&table_id=828","2022-01-21 07:14:19-06"
7,"Sala de Bellas Artes Alberto Domínguez Borraz ( en remodelación)","1974-07-07","Ayuntamiento de San Cristobal de las Casas",7,"Chiapas",78,"San Cristóbal de las Casas",1,"San Cristóbal de las Casas","Av. Miguel Hidalgo s/n esq. Hermanos Domínguez","Centro","29200","967 678 13 57","https://www.facebook.com/profile.php?id=100076342148144","https://www.facebook.com/pages/SALA-DE-BELLAS-ARTES-Alberto-Dominguez-Borraz/326069920761289","","","direducacionsclc@yahoo.com.mx",-92.63809,16.73422,210,"semicircular","http://sic.gob.mx/ficha.php?table=teatro&table_id=7","2024-07-30 14:38:49-06"
8,"Teatro de la Ciudad Hermanos Domínguez","1994-06-24","Ayuntamiento de San Cristóbal de las Casas/Dirección de Cultura y Recreación",7,"Chiapas",78,"San Cristóbal de las Casas",1,"San Cristóbal de las Casas","Diag. Hermanos Paniagua s/n","Barrio de Fátima","29260","967 678 36 37","http://teatrohdgez.blogspot.mx/","","","","culturarecreacionmunicipal@sancristobal.gob.mx",-92.65193,16.73289,1024,"italiano","http://sic.gob.mx/ficha.php?table=teatro&table_id=8","2024-07-19 13:43:54-06"
6,"Teatro Daniel Zebadúa","1931-04-04","Ayuntamiento de San Cristóbal de las Casas/Dirección de Cultura y Recreación",7,"Chiapas",78,"San Cristóbal de las Casas",1,"San Cristóbal de las Casas","Calle 20 de Noviembre s/n esq. 1ro. de Marzo","Centro","29260","967 678 3637","","","","","",-92.63821,16.73862,280,"italiano","http://sic.gob.mx/ficha.php?table=teatro&table_id=6","2024-07-31 11:19:36-06"
990,"Patio Petul ","2019-01-01","",7,"Chiapas",78,"San Cristóbal de las Casas",1,"San Cristóbal de las Casas","Esq.  Diagonal Peje de Oro con San Juan de Dios núm. 1","Barrio de Cuxtitali","29200","961 668 3409","","https://www.facebook.com/PatioPetul/","","","patiopetul@gmail.com",-92.6375,16.73702,0,"","http://sic.gob.mx/ficha.php?table=teatro&table_id=990","2024-11-22 13:51:02-06"
295,"Teatro de la Ciudad Emilio Rabasa","1982-11-20","Consejo Estatal para las Culturas y las Artes de Chiapas",7,"Chiapas",101,"Tuxtla Gutiérrez",1,"Tuxtla Gutiérrez","Calz. Hombres Ilustres s/n esq. Calz. Emilio Rabasa","Centro","29000","(961) 613 13 51","http://www.conecultachiapas.gob.mx/","https://www.facebook.com/teatroemiliorabasa/","","","emiliorabasa@conecultachiapas.gob.mx",-93.10564,16.76016,1186,"italiano","http://sic.gob.mx/ficha.php?table=teatro&table_id=295","2020-03-02 06:13:57-06"
652,"Sala Amanda del Llano","2006-09-22","CONECULTA / Direccion de Difusión Cultural de Chiapas",7,"Chiapas",101,"Tuxtla Gutiérrez",1,"Tuxtla Gutiérrez","Boulervard Angel Albino Corzo núm. 2151","San Roque","29070","61 700 70 ext. 125","","","","","difusion@conecultachiapas.gob.mx",-93.09653,16.75045,234,"italiano","http://sic.gob.mx/ficha.php?table=teatro&table_id=652","2016-12-28 12:39:50-06"
502,"Teatro Hundido al Aire Libre de la Universidad Autónoma de Chiapas","1978-01-01","Universidad Autónoma de Chiapas (UNACH)",7,"Chiapas",101,"Tuxtla Gutiérrez",1,"Tuxtla Gutiérrez","Blvd. Belisario Domínguez Km. 1081","Col. Colina Universitaria","29200","961 617 80 25, 961 612 69 11","","","","","apologi2002@yahoo.com",-93.1545,16.7555,300,"","http://sic.gob.mx/ficha.php?table=teatro&table_id=502","2021-10-28 11:29:33-05"
686,"La Puerta Abierta","2008-08-24","Centro de Formación y Creación Escénica La Puerta Abierta A.C.",7,"Chiapas",101,"Tuxtla Gutiérrez",1,"Tuxtla Gutiérrez","Calle 6ta. Ote. Nte Número 1021 ","Col. Barrio La Pimienta ","29043","961 150 2753","","https://www.facebook.com/lapuertaabiertateatro/?locale=es_LA","","https://www.instagram.com/lapuertaabiertateatro/","puertaabiertala@gmail.com",-93.10904,16.7612,50,"italiano","http://sic.gob.mx/ficha.php?table=teatro&table_id=686","2024-08-02 09:00:48-06"
885,"Telar Teatro","2003-04-18","Telar Teatro A.C.",7,"Chiapas",101,"Tuxtla Gutiérrez",1,"Tuxtla Gutiérrez","9 Sur y 4 Pte. núm. 514 altos","Barrio Los Milagros","29000","961 654 9659","","https://www.facebook.com/pages/category/Performance-Art-Theatre/Telar-Teatro-AC-181559761855268/","","","telarteatro@hotmail.com",-93.12082,16.74746,30,"","http://sic.gob.mx/ficha.php?table=teatro&table_id=885","2022-08-31 09:02:20-05"
535,"Teatro de la Ciudad","1992-06-27","Instituto Chihuahuense de la Cultura",8,"Chihuahua",11,"Camargo",1,"Santa Rosalía de Camargo","Pablo Ginther esq. Francisco Villa s/n","Col. Lagunita","33730","(648) 462 46 77","","","","","ichicultcamargo@hotmail.com",-105.16711,27.67681,609,"italiano","http://sic.gob.mx/ficha.php?table=teatro&table_id=535","2017-05-21 10:58:20-05"
624,"Teatro de Cámara del Centro Cultural San Antonio ","2007-03-01","Ayuntamiento de Cuauhtémoc/Instituto de Cultura",8,"Chihuahua",17,"Cuauhtémoc",1,"Cuauhtémoc","Juárez y 5a.","Barrio Viejo","31500","(625) 128 01 43","","","","","imc.cuauhtemoc@gmail.com",-106.86729,28.41104,360,"","http://sic.gob.mx/ficha.php?table=teatro&table_id=624","2022-12-08 08:08:43-06"
979,"Teatro Bárbaro Foro Cultural Independiente","1000-01-01","",8,"Chihuahua",19,"Chihuahua",1,"Chihuahua","Doblado 119","Zona Centro","31000","614 227 21 76","https://www.teatrobarbaro.com/#","https://www.facebook.com/teatrobarbaromx","https://twitter.com/teatrobarbaromx?lang=es","","teatrobarbaro_contacto@yahoo.com.mx",-106.07631,28.63679,0,"","http://sic.gob.mx/ficha.php?table=teatro&table_id=979","2022-01-20 14:09:52-06"
533,"Teatro de los Héroes","1980-10-02","Instituto Chihuahuense de la Cultura",8,"Chihuahua",19,"Chihuahua",1,"Chihuahua","Av. Universidad y División del Norte s/n","Col. Altavista","31200","(614) 426 57 87","https://www.facebook.com/teatrodelosheroes","","","","teatrodelosheroes@gmail.com",-106.08458,28.65319,1452,"italiano","http://sic.gob.mx/ficha.php?table=teatro&table_id=533","2016-12-28 15:37:03-06"
286,"Teatro al Aire Libre del Instituto Chihuahuense de la Cultura","1980-10-02","Instituto Chihuahuense de Cultura",8,"Chihuahua",19,"Chihuahua",1,"Chihuahua","Gómez Morín s/n esq. Av. División del Norte","Col. Altavista","31170","614 426 57 87","","","","","ichicult@buzon.chihuahua.gob.mx",-106.08301,28.65402,600,"rectangular","http://sic.gob.mx/ficha.php?table=teatro&table_id=286","2021-09-08 09:40:58-05"
142,"Teatro de Cámara del Instituto de Bellas Artes","1964-01-01","Universidad Autónoma de Chihuahua",8,"Chihuahua",19,"Chihuahua",1,"Chihuahua","Av. Universidad s/n","Col. Magisterial","31170","614 439 18 50 ext. 4412","https://uach.mx/fa/contacto/","","","","fa@uach.mx",-106.08686,28.65377,124,"italiano","http://sic.gob.mx/ficha.php?table=teatro&table_id=142","2023-12-07 06:29:36-06"
798,"Aula Experimental de Teatro de la Facultad de Artes (UACH), campus 1","2012-10-02","Universidad Autónoma de Chihuahua (UACH)",8,"Chihuahua",19,"Chihuahua",1,"Chihuahua","Av. Universidad s/n","Col. Magisterial","31137","614 439 18 50 ext. 4400, 4405","http://fa.uach.mx","","","","facultadartes.uach@gmail.com; jxvenegas@uach.mx; mihernandez@uach.mxx",-106.08687,28.65371,0,"","http://sic.gob.mx/ficha.php?table=teatro&table_id=798","2025-06-04 14:31:57-06"
280,"Teatro de la Ciudad de Chihuahua","1992-12-31","Instituto de Cultura del Municipio de Chihuahua",8,"Chihuahua",19,"Chihuahua",1,"Chihuahua","Ojinaga  112","Centro","31000","614 4155 184  ","http://www.icm.gob.mx","https://www.facebook.com/teatrodelaciudadchih","","https://www.instagram.com/teatrodelaciudaddechihuahua/","teatrodelaciudad@gmail.com, contacto@chihuahuabarbaro.com",-106.07446,28.63589,873,"Italiano","http://sic.gob.mx/ficha.php?table=teatro&table_id=280","2024-10-02 14:14:44-06"
285,"Teatro de Cámara Fernando Saavedra","1980-10-02","Instituto Chihuahuense de la Cultura",8,"Chihuahua",19,"Chihuahua",1,"Chihuahua","Av. División del Norte  Núm 2301 esq. Calle 23","Col. Altavista","31170","(614) 426 57 87","http://www.ichicult.gob.mx","","","","ichicult@buzon.chihuahua.gob.mx",-106.08371,28.65355,283,"isabelino","http://sic.gob.mx/ficha.php?table=teatro&table_id=285","2019-01-21 07:01:14-06"
291,"Paraninfo Universitario","1928-10-02","Universidad Autónoma de Chihuahua",8,"Chihuahua",19,"Chihuahua",1,"Chihuahua","Escorza 900","Centro","31000","(614) 439 15 70","https://www.facebook.com/pages/Paraninfo-Universitario/122453897837422","","","","",-106.07222,28.63818,437,"rectangular","http://sic.gob.mx/ficha.php?table=teatro&table_id=291","2019-01-21 07:03:08-06"
283,"Teatro Manuel Talavera Trejo ","1992-06-26","Representación del Instituto Chihuahuense de la Cultura/Ayuntamiento de Delicias",8,"Chihuahua",21,"Delicias",1,"Delicias","Av. Agricultura s/n esq. Río Conchos Ote.","Centro","33000","(639) 474 20 36 ext. 1","https://www.facebook.com/pages/category/Cultural-Center/Teatro-de-la-Ciudad-Manuel-Talavera-Trejo-1514253045318207/","","","","institutodelacultura@prodigy.net.mx",-105.46671,28.19525,904,"italiano","http://sic.gob.mx/ficha.php?table=teatro&table_id=283","2019-01-21 07:11:24-06"
708,"Teatro de Cámara","1991-01-19","Instituto Chihuahuense de la Cultura",8,"Chihuahua",32,"Hidalgo del Parral",1,"Hidalgo del Parral","Joaquín Domínguez 3","Centro","33800","627 522 00 50","https://hidalgodelparral.chihuahua.gob.mx/","https://www.facebook.com/MUNICIPIODEPARRALCHIHUAHUA","","","",-105.66308,26.9332,250,"","http://sic.gob.mx/ficha.php?table=teatro&table_id=708","2025-03-27 10:49:09-06"
1036,"Teatro Hidalgo","1000-01-01","Ayuntamiento de Hidalgo del Parral/Dirección de Turismo y Cultura",8,"Chihuahua",32,"Hidalgo del Parral",1,"Hidalgo del Parral","Av. Francisco Moreno s/n esq. Calle 20 de Noviembre","Centro","33800","627 522 06 55","","","","","tyc.parral@gmail.com; ivonnebarriga.parral@gmail.com",-105.66281,26.93286,0,"","http://sic.gob.mx/ficha.php?table=teatro&table_id=1036","2023-05-02 05:02:10-06"
596,"Teatro Víctor Hugo Rascón Banda ","2006-12-07","Secretaría de Cultura/Centro Cultural Paso del Norte",8,"Chihuahua",37,"Juárez",1,"Juárez","Benjamín Franklin s/n esq. Estocolmo","Zona Pronaf, Delegación Juárez","32320","656 617 10 03","","https://www.facebook.com/ccpnoficial/","","","atencionalclienteccpn@gmail.com",-106.44486,31.74371,1741,"","http://sic.gob.mx/ficha.php?table=teatro&table_id=596","2023-04-25 07:18:35-06"
508,"Teatro Centro Cultural de la Ciudad","1964-09-12","Ayuntamiento de Juárez",8,"Chihuahua",37,"Juárez",1,"Juárez","Anillo Envolvente Pronaf 3210","Zona Pronaf","32115","(656) 737 09 45","","","","","baturines65@gmail.com",-106.45223,31.74107,820,"isabelino","http://sic.gob.mx/ficha.php?table=teatro&table_id=508","2016-07-13 10:44:49-05"
504,"Teatro Foro del Centro Municipal de las Artes","2000-09-12","Municipio de Juárez",8,"Chihuahua",37,"Juárez",1,"Juárez","Mariscal 105","","32000","656 615 28 28 ","https://ipacult.org/?fbclid=IwY2xjawJROJRleHRuA2FlbQIxMAABHQjHwtpf_3hmweA7dsFMkNNJBXlCM8A3tG7HLrQNUdaJfahckUC0y-54cA_aem_lM7wX-NCw5MfZm_jvMFiCQ","https://www.facebook.com/cmaoficialipacult/?locale=es_LA","","","",-106.48795,31.7387,276,"","http://sic.gob.mx/ficha.php?table=teatro&table_id=504","2025-03-26 13:48:13-06"
261,"Teatro de la Nación","1960-11-20","Instituto Mexicano del Seguro Social (IMSS)",8,"Chihuahua",37,"Juárez",1,"Juárez","Panamá 477 esq. 20 de Noviembre","Col. Partido Romero","32030","656 613 59 30","","","","","jesus.canon@imss.gob.mx",-106.46491,31.73397,305,"semicircular","http://sic.gob.mx/ficha.php?table=teatro&table_id=261","2025-05-14 14:15:41-06"
289,"Teatro Gracia Pasquel","1991-11-20","Universidad Autónoma de Ciudad Juárez",8,"Chihuahua",37,"Juárez",1,"Juárez","Av. Hermanos Escobar esq. Plutarco Elías Calles s/n","Col. Fovissste Chamizal","32310","656 688 18 68","","https://www.facebook.com/p/Teatro-Gracia-Pasquel-Ccu-Uacj-100010799975687/","","","alozano@uacj.mx",-106.44269,31.74825,497,"italiano","http://sic.gob.mx/ficha.php?table=teatro&table_id=289","2024-10-18 13:22:36-06"
597,"Teatro Experimental Octavio Trías","2006-12-07","Secretaría de Cultura/Centro Cultural Paso del Norte",8,"Chihuahua",37,"Juárez",1,"Juárez","Benjamín Franklin s/n esq. Estocolmo","Zona Pronaf, Delegación Juárez","32320","656 617 10 03","","https://www.facebook.com/ccpnoficial/","","","atencionalclienteccpn@gmail.com",-106.44481,31.7438,300,"multimodal","http://sic.gob.mx/ficha.php?table=teatro&table_id=597","2023-04-25 07:21:26-06"
984,"Café Teatro Telón de Arena","1000-01-01","Telón de Arena, A.C.",8,"Chihuahua",37,"Juárez",1,"Juárez","Cayetano López 566","Col. Partido la Fuente","32340","656 611 95 45","https://www.telondearena.org/","https://www.facebook.com/Teatrotelondearena/","telondearena","","telon.de.arena@gmail.com",-106.48502,31.74647,0,"","http://sic.gob.mx/ficha.php?table=teatro&table_id=984","2020-05-19 11:19:46-05"
290,"Cine Teatro ANDA","1983-03-20","Asociación Nacional de Actores (ANDA)",8,"Chihuahua",37,"Juárez",1,"Juárez","Tlaxcala 2845 esq. Américas","Col. Margaritas","32300","656 616 35 61","","","","","perezgutierrezjoel@yahoo.com.mx",-106.45745,31.74332,770,"italiano","http://sic.gob.mx/ficha.php?table=teatro&table_id=290","2021-08-25 07:38:54-05"
791,"Teatro Maestro Auditorio de la Ciudad de Meoqui","2009-11-07","Ayuntamiento de Meoqui",8,"Chihuahua",45,"Meoqui",1,"Pedro Meoqui","Pípila 1302","Centro","33130","693 473 05 21","","","","","",-105.48103,28.27286,200,"italiano","http://sic.gob.mx/ficha.php?table=teatro&table_id=791","2025-06-17 13:27:43-06"
792,"Teatro Auditorio Margarita Caballero de Andreu","2006-12-14","Ayuntamiento de San Francisco de Conchos",8,"Chihuahua",58,"San Francisco de Conchos",8,"Boquilla de Babisas (La Boquilla de Conchos)","Seccional Turístico de La Boquilla s/n","","33690","648 466 30 33","","https://www.facebook.com/gobiernosfc/","","","",-105.40371,27.54944,0,"italiano","http://sic.gob.mx/ficha.php?table=teatro&table_id=792","2025-03-26 11:49:14-06"
793,"Teatro Auditorio Presidentes","1000-01-01","Ayuntamiento de Saucillo",8,"Chihuahua",62,"Saucillo",1,"Saucillo","Colón y Arboledas s/n","Centro","33620","(621) 475 02 30","","","","","",-105.28947,28.02484,0,"italiano","http://sic.gob.mx/ficha.php?table=teatro&table_id=793","2016-12-28 14:49:13-06"
474,"Foro Cultural Azcapotzalco","1978-10-04","Delegación Azcapotzalco",9,"Ciudad de México",2,"Azcapotzalco",1,"Azcapotzalco","Av. Cuitláhuac s/n esq. Pino","Col. Liberación","02930","55 5355 0376","https://inba.gob.mx/recinto/696","https://www.facebook.com/Eventos-Foro-Cultural-Azcapotzalco-2095605673989730","foroazcapotzalc","","foroculturalazcapotzalco@hotmail.com",-99.15177,19.4729,872,"semicircular","http://sic.gob.mx/ficha.php?table=teatro&table_id=474","2021-09-20 11:31:18-05"
331,"Teatro Enrique Lizalde","1963-10-23","Sociedad General de Escritores de México (SOGEM)/Centro Cultural José María Fernández Unsaín",9,"Ciudad de México",3,"Coyoacán",1,"Coyoacán","Eleuterio Méndez 11 y Héroes del 47","Col. Churubusco Coyoacán","04120","55 5337 0230  ext.819","https://www.sogem.org/enrique-lizalde","https://www.facebook.com/TeatroEnriqueLizalde","","","contacto@sogem.org; jgutierrez@sogem.org.mx",-99.15029,19.35094,160,"italiano","http://sic.gob.mx/ficha.php?table=teatro&table_id=331","2023-10-25 06:57:29-06"
701,"Teatro Bar El Vicio ","2005-09-02","",9,"Ciudad de México",3,"Coyoacán",1,"Coyoacán","Madrid 13","Col. Del Carmen","04000","55 5659 1139","http://www.elvicio.com.mx/","https://www.facebook.com/teatrobarelvicio?fref=ts","","","",-99.1642,19.35739,0,"italiano","http://sic.gob.mx/ficha.php?table=teatro&table_id=701","2021-09-14 05:38:10-05"
771,"Sala Héctor Mendoza","2009-01-01","Secretaría de Cultura/INBA/Compañía Nacional de Teatro",9,"Ciudad de México",3,"Coyoacán",1,"Coyoacán","Francisco Sosa 159","Barrio Santa Catarina","04000","55 8647 5621","http://www.cnteatro.bellasartes.gob.mx","https://www.facebook.com/CNTeatromx/","https://twitter.com/CNTeatromx","https://www.instagram.com/cnteatromx/","publicos.cnteatro@inba.gob.mx",-99.16975,19.34949,96,"italiano","http://sic.gob.mx/ficha.php?table=teatro&table_id=771","2023-03-27 06:22:19-06"
493,"Teatro Ramiro Jiménez","1996-06-19","Particular",9,"Ciudad de México",3,"Coyoacán",1,"Coyoacán","Av. División del Norte 2545","Col. Del Carmen Coyoacán","04100","55 5688 5340","http://carteleradeteatro.mx/teatro/sur/teatro-ramiro-jimenez/","https://www.facebook.com/Teatro-Ramiro-Jim%C3%A9nez-553350894718865/","","","contacto@teatroramirojimenez.com",-99.15288,19.35606,655,"italiano","http://sic.gob.mx/ficha.php?table=teatro&table_id=493","2020-02-28 11:32:26-06"
915,"Foro Viena","2017-03-31","",9,"Ciudad de México",3,"Coyoacán",1,"Coyoacán","Centenario 159","Col. Del Carmen","04100 ","55 2155 9308","https://www.facebook.com/FOROVIENACOYOACAN/","","","","",-99.1633,19.35671,250,"italiano","http://sic.gob.mx/ficha.php?table=teatro&table_id=915","2023-12-05 13:21:14-06"
482,"Teatro Carlos Lazo","1960-01-01","UNAM/Facultad de Arquitectura",9,"Ciudad de México",3,"Coyoacán",1,"Coyoacán","Circuito Escolar s/n, Int. Fac. de Arquitectura","Cd. Universitaria","04510","55 5616 0545","","","","","",-99.18713,19.33072,422,"italiano","http://sic.gob.mx/ficha.php?table=teatro&table_id=482","2023-02-24 07:05:40-06"
532,"Teatro Juan Ruiz de Alarcón","1979-02-26","UNAM/Centro Cultural Universitario",9,"Ciudad de México",3,"Coyoacán",1,"Coyoacán","Av. Insurgentes Sur 3000","Cd. Universitaria","04510","55 5665 6956","","","","","contactoteatrounam@gmail.com",-99.18038,19.32198,417,"italiano","http://sic.gob.mx/ficha.php?table=teatro&table_id=532","2023-12-05 12:59:31-06"
485,"Teatro Dr. Jorge Flores Valdés","1992-12-12","UNAM/Centro Cultural Universitario/Museo de las Ciencias Universum",9,"Ciudad de México",3,"Coyoacán",1,"Coyoacán","Circuito Mario de la Cueva s/n ","Ciudad Universitaria","04510","55 5622 7260, 55 5622 7287","http://www.universum.unam.mx","","","","centrotelefonico@dgdc.unam.mx",-99.18135,19.31109,232,"italiano","http://sic.gob.mx/ficha.php?table=teatro&table_id=485","2023-10-19 08:42:14-06"
963,"Foro del Centro Cultural Los Talleres","1993-01-01","",9,"Ciudad de México",3,"Coyoacán",1,"Coyoacán","Francisco Sosa 29","Centro Histórico","04000","55 5658 7288","http://www.lostalleres.com.mx","https://www.facebook.com/lostalleresoficial/","lostalleres","","talleres@prodigy.net.mx",-99.167,19.34944,60,"italiano","http://sic.gob.mx/ficha.php?table=teatro&table_id=963","2021-10-01 07:24:50-05"
432,"Teatro Carlos Ancira","1986-04-01","Alcaldía Coyoacán/Casa de la Cultura Ricardo Flores Magón",9,"Ciudad de México",3,"Coyoacán",1,"Coyoacán","Calz. de la Virgen s/n esq. Canal Nacional","Col. Carmen Serdán","04910","55 5607 0888","","https://www.facebook.com/culturacoyoacan","","","casadelacultura.floresmagon@gmail.com",-99.10258,19.32313,307,"italiano","http://sic.gob.mx/ficha.php?table=teatro&table_id=432","2023-12-05 12:58:10-06"
1034,"Teatro Lola Cueto","1000-01-01","",9,"Ciudad de México",3,"Coyoacán",1,"Coyoacán","Av. Francisco Sosa 298","Santa Catarina","04010 ","55 3051 0601","","","","","",-99.16194,19.35021,0,"","http://sic.gob.mx/ficha.php?table=teatro&table_id=1034","2023-03-27 09:18:26-06"
466,"Teatro de las Artes","1994-11-24","Secretaría de Cultura/CENART",9,"Ciudad de México",3,"Coyoacán",1,"Coyoacán","Av. Río Churubusco 79","Col. Country Club","04220","55 4155 0000 ext. 1273","http://www.cenart.gob.mx/ubicaciones/teatro-de-las-artes/","","","","edelavega@cultura.gob.mx",-99.13892,19.35628,565,"italiano","http://sic.gob.mx/ficha.php?table=teatro&table_id=466","2021-09-01 09:28:09-05"
378,"Teatro La Capilla","1953-01-20","Compañía Los Endebles A.C.",9,"Ciudad de México",3,"Coyoacán",1,"Coyoacán","Madrid 13","Col. Del Carmen Coyoacán","04100","55 3095 4077","https://www.teatrolacapilla.com/","https://www.facebook.com/LaCapillaTeatro","","https://www.instagram.com/teatrolacapilla/","info@teatrolacapilla.com",-99.16405,19.35738,100,"italiano","http://sic.gob.mx/ficha.php?table=teatro&table_id=378","2025-03-14 15:03:16-06"
458,"Teatro Santa Catarina","1970-08-05","UNAM / Dirección de Teatro",9,"Ciudad de México",3,"Coyoacán",1,"Coyoacán","Jardín de Santa Catarina 10 esq. Progreso y Francisco Sosa","Barrio de Santa Catarina","04000","55 5658 0560","http://www.teatro.unam.mx/wwwteatrounam/Paginas/stacatarina.html","","","","contactoteatrounam@gmail.com",-99.17127,19.34956,80,"multimodal","http://sic.gob.mx/ficha.php?table=teatro&table_id=458","2021-10-28 12:37:39-05"
247,"Foro Cultural Coyoacanense Hugo Argüelles","1977-10-13","Gobierno de la ciudad de México/Alcaldía Coyoacán",9,"Ciudad de México",3,"Coyoacán",1,"Coyoacán","Ignacio Allende 36","Col. Del Carmen","04100","55 5554 0738","","https://www.facebook.com/foroculturalcoyoacanense/?locale=es_LA","","https://www.instagram.com/foro_cultural_coyoacanense/","forocoyoacanense@gmail.com",-99.16171,19.35081,216,"italiano","http://sic.gob.mx/ficha.php?table=teatro&table_id=247","2024-11-27 18:11:07-06"
492,"Foro Casa del Teatro","1991-03-18","La Casa del Teatro, A.C.",9,"Ciudad de México",3,"Coyoacán",1,"Coyoacán","Vallarta 31-A, Plaza de la Conchita","Col. La Concepción","04020","55 5659 4238  ","https://www.casadelteatro.com.mx/","https://es-la.facebook.com/LaCasadelTeatro/","","","casadelteatrocoordinacion@gmail.com; foros.tallereslacasadelteatro@gmail.com",-99.15991,19.34688,50,"italiano","http://sic.gob.mx/ficha.php?table=teatro&table_id=492","2022-01-21 13:19:31-06"
952,"Foro teatral del Albergue del Arte","2009-01-01","Asociación Civil",9,"Ciudad de México",3,"Coyoacán",1,"Coyoacán","Alberto Zamora 32","Col. Villa Coyoacán","40000","55 5554 6228","","https://www.facebook.com/AlberguedelArte?rf=1463106837251971","tadecoteatro","","tadecos08@hotmail.com",-99.16328,19.34598,0,"","http://sic.gob.mx/ficha.php?table=teatro&table_id=952","2021-10-01 09:34:08-05"
468,"Foro de las Artes ","2000-11-14","Secretaría de Cultura /CENART",9,"Ciudad de México",3,"Coyoacán",1,"Coyoacán","Río Churubusco 79 esq. Calz. de Tlalpan","Col. Country Club","04220","55 4155 0000 ext. 1008","http://www.cenart.gob.mx/ubicaciones/foro-de-las-artes/","","","","",-99.13703,19.35389,96,"multimodal","http://sic.gob.mx/ficha.php?table=teatro&table_id=468","2021-10-01 07:02:17-05"
1035,"Foro Experimental José Luis Ibáñez","2016-09-21","UNAM/Facultad de Filosofía y Letras/Colegio de Literatura Dramática y Teatro",9,"Ciudad de México",3,"Coyoacán",1,"Coyoacán","Facultad de Filosofía y Letras, Circuito Interior s/n","Ciudad Universitaria","04510","55508013, 56221868","https://www.filos.unam.mx/extension/foro-experimental-jose-luis-ibanez/","https://www.facebook.com/facultaddefilosofiayletras","","","extensionacademica@filos.unam.mx",-99.18706,19.33452,0,"","http://sic.gob.mx/ficha.php?table=teatro&table_id=1035","2024-04-05 13:20:14-06"
471,"Foro Experimental Black Box","1995-07-15","Secretaría de Cultura /CENART/Escuela Nacional de Danza Clásica y Contemporánea",9,"Ciudad de México",3,"Coyoacán",1,"Coyoacán","Río Churubusco s/n esq. Calz. de Tlalpan","Col. Country Club","04220","55 4155 0000","http://www.cenart.gob.mx/ubicaciones/foro-experimental-black-box/","https://www.facebook.com/cenartmexico/","","","",-99.14159,19.35626,90,"multimodal","http://sic.gob.mx/ficha.php?table=teatro&table_id=471","2021-10-01 08:35:11-05"
487,"Foro Sor Juana Inés de la Cruz","1979-02-26","UNAM/Centro Cultural Universitario",9,"Ciudad de México",3,"Coyoacán",1,"Coyoacán","Av. Insurgentes Sur 3000","Col. Ciudad Universitaria","04510","55 5665 5021","https://www.fundacionunam.org.mx/donde-paso/celebra-la-unam-40-anos-del-foro-sor-juana-ines-y-del-teatro-juan-ruiz-de-alarcon/","","","","teatrounam@hotmail.com y mergold@servidor.unam.mx",-99.18465,19.31354,180,"multimodal","http://sic.gob.mx/ficha.php?table=teatro&table_id=487","2021-10-01 08:43:59-05"
344,"Teatro Salvador Novo","1995-08-24","Secretaría de Cultura/CENART",9,"Ciudad de México",3,"Coyoacán",1,"Coyoacán","Río Churubusco 79 esq. Calz. de Tlalpan","Col. Country Club","04220","55 4155 0000 exts. 1008, 1321, 1322","https://www.cenart.gob.mx/espacios-escenicos/","https://www.facebook.com/pages/Teatro-Salvador-Novo/201291023323743?locale=es_LA","","https://www.instagram.com/explore/locations/289469484/teatro-salvador-novo-cna/","abriz@cultura.gob.mx",-99.14311,19.35634,270,"italiano","http://sic.gob.mx/ficha.php?table=teatro&table_id=344","2023-12-05 10:29:20-06"
470,"Foro Antonio López Mancera","1995-08-17","Secretaría de Cultura/CENART/Escuela Nacional de Arte Teatral",9,"Ciudad de México",3,"Coyoacán",1,"Coyoacán","Río Churubusco s/n esq. Calz. de Tlalpan","Col. Country Club","04200","55 4155 0000 ext. 1008","http://www.cenart.gob.mx/ubicaciones/foro-antonio-lopez-mancera/","","","","abriz@cultura.gob.mx",-99.14323,19.35634,72,"multimodal","http://sic.gob.mx/ficha.php?table=teatro&table_id=470","2021-10-01 05:27:47-05"
481,"Espacio C Héctor Azar","2005-04-02","Centro de Arte Dramático, A.C.",9,"Ciudad de México",3,"Coyoacán",1,"Coyoacán","Av. Centenario 26 esq. Belisario Domínguez","Col. Del Carmen","04000","55 5554 9091","https://cadac1975.wordpress.com/espacio-c-hector-azar/","","","","cadac1975@hotmail.com",-99.16409,19.35053,280,"escénico","http://sic.gob.mx/ficha.php?table=teatro&table_id=481","2021-09-29 15:13:42-05"
978,"Cirkóptero (espacio de creación, entrenamiento y presentación de artes circenses)","2019-05-04","",9,"Ciudad de México",3,"Coyoacán",1,"Coyoacán","Xicoténcatl 110","Col. Del Carmen","04100","55 7030 6833","http://www.cirkoptero.com.mx","https://www.facebook.com/Cirkoptero/","","","crucesintervencion.ac@gmail.com",-99.15343,19.35474,30,"multimodal","http://sic.gob.mx/ficha.php?table=teatro&table_id=978","2021-09-24 06:25:17-05"
660,"Aula Teatro Escenario Justo Sierra de la Facultad de Filosofía y Letras","1960-01-01","Colegio de Literatura Dramática y Teatro/UNAM",9,"Ciudad de México",3,"Coyoacán",1,"Coyoacán","","Cd. Universitaria","04510","55 5622 1884","http://teatro.filos.unam.mx/inicio/estudiantes/area-de-teatros/","","","","teatro@filos.unam.mx",-99.18727,19.33443,50,"","http://sic.gob.mx/ficha.php?table=teatro&table_id=660","2021-09-29 07:45:04-05"
469,"Teatro Raúl Flores Canelo","1995-07-15","Secretaría de Cultura/CENART",9,"Ciudad de México",3,"Coyoacán",1,"Coyoacán","Río Churubusco 79 esq. Calz. de Tlalpan","Col. Country Club","04220","55 4155 0000 exts. 1508, 1513","http://www.cenart.gob.mx","https://www.facebook.com/pages/Teatro-Ra%C3%BAl-Flores-Canelo/1434228000157234?locale=es_LA","","https://www.instagram.com/explore/locations/306786340/teatro-raul-flores-canelo/","",-99.14267,19.35626,336,"italiano","http://sic.gob.mx/ficha.php?table=teatro&table_id=469","2023-12-05 10:47:20-06"
658,"Aula Teatro Enrique Ruelas de la Facultad de Filosofía y Letras","1960-01-01","UNAM/Colegio de Literatura Dramática y Teatro",9,"Ciudad de México",3,"Coyoacán",1,"Coyoacán","Circuito Interior s/n, edif.Adolfo Sánchez Vázquez","Col. Ciudad Universitaria","04510","55 5622 1884","http://www.filos.unam.mx/LICENCIATURA/Teatro","https://www.facebook.com/facultaddefilosofiayletras/","filos_unam","","teatro@filos.unam.mx",-99.1873,19.33439,50,"","http://sic.gob.mx/ficha.php?table=teatro&table_id=658","2021-09-29 07:41:26-05"
461,"Teatro Rafael Solana","1992-11-23","Centro  Social Veracruzano, A.C.",9,"Ciudad de México",3,"Coyoacán",1,"Coyoacán","Miguel Ángel de Quevedo 687","Barrio del Cuadrante de San Francisco","04320","55 5554 1633","","https://www.facebook.com/TeatroRafaelSolanaMx/?locale=es_LA","TeatroRafaelSolanaMx","","jarochos@prodigy.nett.mx",-99.1626,19.3441,289,"italiano","http://sic.gob.mx/ficha.php?table=teatro&table_id=461","2023-11-21 05:11:20-06"
555,"Foro Cultural Ana María Hernández","1985-01-01","Centro de Capacitación y Oficinas de Desarrollo Social/Secretaría de Cultural del D.F. ",9,"Ciudad de México",3,"Coyoacán",1,"Coyoacán","Av. Pacífico 181 ","Barrio La Concepción","04020","55 5658 9744","","https://es-la.facebook.com/forocultiralanamariahdez/","","","foro.anamaria.cultura.coyoacan@gmail.com",-99.15792,19.34544,257,"","http://sic.gob.mx/ficha.php?table=teatro&table_id=555","2021-10-01 06:29:53-05"
679,"Foro Enrique Alonso","1994-09-10","Casa de Cultura Raúl Anguiano",9,"Ciudad de México",3,"Coyoacán",1,"Coyoacán","Rey Nezahualcóyotl esq. Yaquis s/n ","Col. Ajusco Huayamilpas","04300","55 5617 9189","http://cdmxtravel.com/es/lugares/casa-cultural-raul-anguiano.html","","","","casaculturalraulanguiano@hotmail.com",-99.1511,19.32275,280,"","http://sic.gob.mx/ficha.php?table=teatro&table_id=679","2021-10-01 07:53:59-05"
486,"Foro Rodolfo Usigli","1989-07-01","SOGEM/Centro Cultural José María Fernández Unsaín",9,"Ciudad de México",3,"Coyoacán",1,"Coyoacán","Héroes del 47","Col. San Mateo Churubusco","04120","55 5337 0230 ext. 819","https://www.sogem.org/foro-rodolfo-usigli","","","","steatro2@sogem.org.mx ",-99.15025,19.3513,170,"isabelino","http://sic.gob.mx/ficha.php?table=teatro&table_id=486","2023-12-05 13:32:20-06"
1054,"Teatro Morelos","2015-01-01","Alcaldía Cuajimalpa de Morelos/Subdirección de Derechos Culturales",9,"Ciudad de México",4,"Cuajimalpa de Morelos",1,"Cuajimalpa de Morelos","Av. Juárez s/n, esq. Av. México","Cuajimalpa","05000","55 5814 1150","","https://www.facebook.com/photo/?fbid=122141104640538864&set=a.122108741000538864","","","sdc@cuajimalpacdmx.gob.mx",-99.29972,19.35735,400,"","http://sic.gob.mx/ficha.php?table=teatro&table_id=1054","2025-03-27 13:44:12-06"
994,"Anfiteatro La Mexicana","2018-11-25","Gobierno de la Ciudad de México",9,"Ciudad de México",4,"Cuajimalpa de Morelos",1,"Cuajimalpa de Morelos","Av. Luis Barragán 505","Col. Santa Fe","05348","","https://parquelamexicana.mx/","https://www.facebook.com/parquelamexicanaoficial","https://x.com/mexicanaparque","https://www.instagram.com/parquelamexicana_oficial/?hl=es","info@parquelamexicana.mx",-99.27323,19.35532,600,"Irregular","http://sic.gob.mx/ficha.php?table=teatro&table_id=994","2025-06-06 14:20:27-06"
439,"Teatro Francisco Fuentes Madaleno","1952-01-01","Gobierno de la Ciudad de México/Alcaldía Gustavo A. Madero",9,"Ciudad de México",5,"Gustavo A. Madero",1,"Gustavo A. Madero","Av. Lindavista s/n entre Matanzas y Lima, Parque Deportivo Miguel Alemán","Col. Lindavista","07300","55 5119 5364","https://www.gamadero.cdmx.gob.mx","","","","",-99.12801,19.49283,250,"italiano","http://sic.gob.mx/ficha.php?table=teatro&table_id=439","2023-12-06 08:32:06-06"
402,"Teatro al Aire Libre Tío Gamboín","1972-12-01","Gobierno de la Ciudad de México/Secretaría del Medio Ambiente/Centro de Convivencia Infantil",9,"Ciudad de México",5,"Gustavo A. Madero",1,"Gustavo A. Madero","Av. Loreto Fabela s/n, Bosque de San Juan de Aragón","","07920","55 5100 2829 ext. 109","https://www.sedema.cdmx.gob.mx","","","","bosquearagon@hotmail.com",-99.0793,19.4613,1500,"isabelino","http://sic.gob.mx/ficha.php?table=teatro&table_id=402","2023-12-06 07:36:37-06"
199,"Teatro Morelos IMSS","1962-02-23","Instituto Mexicano del Seguro Social (IMSS)",9,"Ciudad de México",5,"Gustavo A. Madero",1,"Gustavo A. Madero","Av. San Juan de Aragón 311 esq. Eduardo Molina","Col. San Pedro El Chico","07480","55 5781 4390","https://teatrodelanacion.com.mx/teatros/teatro-morelos/","","","","teatros.metropolitanos@fidteatros.com.mx",-99.09733,19.47848,412,"italiano","http://sic.gob.mx/ficha.php?table=teatro&table_id=199","2023-12-05 13:48:50-06"
440,"Teatro al Aire Libre Carlos Colorado","1984-01-01","Gobierno de la Ciudad de México/Alcaldía Gustavo A. Madero",9,"Ciudad de México",5,"Gustavo A. Madero",1,"Gustavo A. Madero","Av. Ejido esq. Benito Juárez","Col. 25 de Julio","07520","55 5118 2800 ext. 7201"," http://www.gamadero.gob.mx","https://www.facebook.com/profile.php?id=100064949131330","","","carloscolorado.gam@gmail.com",-99.08091,19.49541,1000,"Cuadrado Frontal","http://sic.gob.mx/ficha.php?table=teatro&table_id=440","2023-12-06 06:18:47-06"
252,"Teatro Tepeyac Carmen Montejo","1960-06-01","Instituto Mexicano del Seguro Social (IMSS)",9,"Ciudad de México",5,"Gustavo A. Madero",1,"Gustavo A. Madero","Calz. de Guadalupe 497","Col. Estrella","07810","55 5517 6560","https://teatrodelanacion.com.mx/teatros/teatro-tepeyac/","https://www.facebook.com/TeatroTepeyacOficial","","","magaly.gayosso@imss.gob.mx",-99.12127,19.47342,688,"italiano con escenario giratorio","http://sic.gob.mx/ficha.php?table=teatro&table_id=252","2023-12-06 09:07:33-06"
685,"Sala de Conciertos Tepecuicatl","1993-03-17","Alcaldía Gustavo A. Madero/Subdirección de Promoción y Difusión Cultural",9,"Ciudad de México",5,"Gustavo A. Madero",1,"Gustavo A. Madero","Av. Cantera 12 esq. Misterios","Barrio Rosas del Tepeyac","07010","55 5748 0949, 55 4291 8699","","https://www.facebook.com/profile.php?id=100067120839643","","","gam.spdc@gmail.com",-99.11692,19.48911,0,"","http://sic.gob.mx/ficha.php?table=teatro&table_id=685","2024-03-15 07:12:19-06"
735,"Foro Escénico del Faro de Oriente","2011-09-01","Secretaría de Cultura de la Ciudad de México",9,"Ciudad de México",7,"Iztapalapa",1,"Iztapalapa","Calz. Ignacio Zaragoza s/n","Col. Fuentes de Zaragoza","09150","(55) 5738 7443 ","https://www.cultura.cdmx.gob.mx/recintos/faro-oriente","","","","farodeorientedireccion@yahoo.com.mx",-99.01008,19.36994,0,"","http://sic.gob.mx/ficha.php?table=teatro&table_id=735","2019-02-07 07:30:45-06"
315,"Teatro del Fuego Nuevo","1979-05-04","Universidad Autónoma Metropolitana, Unidad Iztapalapa",9,"Ciudad de México",7,"Iztapalapa",1,"Iztapalapa","Av. San Rafael Atlixco 186, edif. B,  P.B.","Col. Vicentina","09340","55 5804 4820, 55 5804 4821","http://www.comunicacionsocial.uam.mx/cultura.html","https://www.facebook.com/p/Teatro-del-Fuego-Nuevo-UAM-Iztapalapa-100063536589739/","","","",-99.07245,19.36128,190,"italiano","http://sic.gob.mx/ficha.php?table=teatro&table_id=315","2023-12-06 10:17:07-06"
728,"Teatro del Centro Cultural Fausto Vega","2014-03-09","Alcaldía Iztapalapa/Dirección Ejecutiva de Cultura",9,"Ciudad de México",7,"Iztapalapa",1,"Iztapalapa","Alfonso del Toro s/n","Col. Escuadrón 201","09000","55 4528 2551","https://carteleradeteatro.mx/teatro/teatro-del-centro-cultural-fausto-vega/","","","","fidel.sandoval70@gmail.com; promocionculturaliztapalapa@gmail.com",-99.11116,19.36668,1164,"Italiano","http://sic.gob.mx/ficha.php?table=teatro&table_id=728","2021-10-21 09:26:08-05"
417,"Teatro San Jerónimo Independencia","1962-04-01","",9,"Ciudad de México",8,"La Magdalena Contreras",1,"La Magdalena Contreras","Periférico Sur 3400, Unidad Independencia","Col. San Jerónimo Lídice","10100","55 5595 2117","","","","https://www.instagram.com/teatrosanjeronimoindependencia","",-99.20972,19.33404,467,"italiano","http://sic.gob.mx/ficha.php?table=teatro&table_id=417","2023-12-05 10:14:10-06"
511,"Teatro del Centro Cultural Helénico","1979-06-12","Secretaría de Cultura Federal/Centro Cultural Helénico",9,"Ciudad de México",10,"Álvaro Obregón",1,"Álvaro Obregón","Av. Revolución 1500","Col. Guadalupe Inn","01020","55 4155 0900 y 01","//www.helenico.gob.mx","//www.facebook.com/CCHelenico/?ref=bookmarks","Helenico","","helenico@cultura.gob.mx",-99.19005,19.35306,460,"italiano","http://sic.gob.mx/ficha.php?table=teatro&table_id=511","2023-12-05 10:37:31-06"
423,"Teatro López Tarso","1988-01-29","Gobierno de la ciudad de México/Centro Cultural San Ángel",9,"Ciudad de México",10,"Álvaro Obregón",1,"Álvaro Obregón","Av. Revolución 1733 esq. Francisco I. Madero","Col. San Ángel","01000","55 5616 1254","","https://www.facebook.com/teatroignaciolopeztarso/","","","centroculturalsanangel@hotmail.com",-99.19038,19.34542,400,"italiano","http://sic.gob.mx/ficha.php?table=teatro&table_id=423","2021-09-17 14:59:40-05"
512,"Foro La Gruta","1988-01-13","Secretaría de Cultura/Centro Cultural Helénico",9,"Ciudad de México",10,"Álvaro Obregón",1,"Álvaro Obregón","Av. Revolución 1500","Col. Guadalupe Inn","01020","55 4155 0919","http://www.helenico.gob.mx","https://www.facebook.com/CCHelenico/?ref=bookmarks","Helenico","","",-99.19013,19.35245,80,"multimodal","http://sic.gob.mx/ficha.php?table=teatro&table_id=512","2022-07-22 12:27:17-05"
931,"Foro 1869","1000-01-01","Privado",9,"Ciudad de México",10,"Álvaro Obregón",1,"Álvaro Obregón","Insurgentes Sur 1869","Col. Guadalupe Inn","01020","55 7743 5982","http://foro1869.com","https://www.facebook.com/Foro1869/","","","foro1869@gmail.com",-99.18541,19.35495,250,"","http://sic.gob.mx/ficha.php?table=teatro&table_id=931","2025-06-17 13:30:31-06"
477,"Teatro Carpa Geodésica","1975-01-06","Teatro de Papel, A.C.",9,"Ciudad de México",10,"Álvaro Obregón",1,"Álvaro Obregón","Av. de los Insurgentes Sur 2135","Col. San Ángel","01000","55 5616 0866","","https://www.facebook.com/CarpaGeodesicaTeatro","","","teatrocarpageodesica@hotmail.com",-99.18856,19.34571,250,"isabelino","http://sic.gob.mx/ficha.php?table=teatro&table_id=477","2021-09-20 06:24:57-05"
422,"Teatro de la Juventud","1989-01-01","Alcaldía Álvaro Obregón/Dirección General de Cultura, Educación y Deporte/Coordinación de Fomento Cultural y Educación",9,"Ciudad de México",10,"Álvaro Obregón",1,"Álvaro Obregón","Calle 10 s/n esq. Canario","Col. Tolteca","01150","","","https://www.facebook.com/carteleradeteatrocdmx/","","","teatro_juventud_dao@hotmail.com",-99.19472,19.39025,1195,"italiano","http://sic.gob.mx/ficha.php?table=teatro&table_id=422","2024-06-03 10:43:34-06"
478,"Claustro Románico","1979-06-12","Instituto Cultural Helénico, A.C.",9,"Ciudad de México",10,"Álvaro Obregón",1,"Álvaro Obregón","Av. Revolución 1500","Col. Guadalupe Inn","01020","55 1885 8445","https://helenico.edu.mx/","https://www.facebook.com/InstitutoHelenico","https://twitter.com/IHelenico","","ich@helenico.edu.mx; vinculacion@helenico.edu.mx",-99.18987,19.35301,300,"multimodal","http://sic.gob.mx/ficha.php?table=teatro&table_id=478","2023-07-31 05:43:37-06"
513,"Capilla Gótica del Siglo XIV ","1979-06-12","Instituto Cultural Helénico, A.C.",9,"Ciudad de México",10,"Álvaro Obregón",1,"Álvaro Obregón","Av. Revolución 1500","Col. Guadalupe Inn","01020","55 1885 8445","https://helenico.edu.mx/","https://www.facebook.com/InstitutoHelenico/","IHelenico","","ich@helenico.edu.mx; vinculacion@helenico.edu.mx",-99.18987,19.35302,300,"rectangular","http://sic.gob.mx/ficha.php?table=teatro&table_id=513","2023-02-02 06:31:32-06"
251,"Teatro Santa Fe/Unidad Médico Familiar 12","1958-03-07","Instituto Mexicano del Seguro Social (IMSS)",9,"Ciudad de México",10,"Álvaro Obregón",1,"Álvaro Obregón","Plaza de los Héroes  s/n","U.H. Santa Fe","01170","55 5516 2163","","","","","teatrosantafeimss@hotmail.com",-99.20458,19.38827,270,"cuadrado","http://sic.gob.mx/ficha.php?table=teatro&table_id=251","2021-09-20 11:19:24-05"
914,"Teatro Royal Pedregal","1000-01-01","",9,"Ciudad de México",12,"Tlalpan",1,"Tlalpan","Periférico Sur 4363","Col. Jardines en la Montaña","14210","55 2155 3420","","https://www.facebook.com/elroyalpedregal/?locale=es_LA","","https://www.instagram.com/teatroroyalpedregal/?hl=en","",-99.20023,19.30365,384,"italiano","http://sic.gob.mx/ficha.php?table=teatro&table_id=914","2025-06-12 14:21:53-06"
332,"Foro José Solé","1999-11-21","Delegación Zona Regional Sur del ISSSTE/Subdirección de Acción Cultural",9,"Ciudad de México",12,"Tlalpan",1,"Tlalpan","San Fernando 15","Col. Toriello Guerra","14050","55 5665 1245","","","","","",-99.17168,19.29387,130,"frontal","http://sic.gob.mx/ficha.php?table=teatro&table_id=332","2025-05-27 08:53:45-06"
429,"Teatro María Tereza Montoya","1985-05-01","Alcaldía  Benito Juárez/Coordinación de Cultura/Subdirección de Derechos Culturales Recreativos y Educativos",9,"Ciudad de México",14,"Benito Juárez",1,"Benito Juárez","Eje Central Lázaro Cárdenas 912 ","Col. Segunda del Periodista","03620","55 5674 2533","","https://www.facebook.com/TeatroMariaTerezaMontoya","",""," Tmariaterezamontoya@gmail.com",-99.14747,19.38309,396,"italiano","http://sic.gob.mx/ficha.php?table=teatro&table_id=429","2024-06-05 10:21:34-06"
918,"Foro Teatral Bellescene","2017-04-08","",9,"Ciudad de México",14,"Benito Juárez",1,"Benito Juárez","Zempoala 90, esq. La Morena y Xola","Col. Narvarte","03020","55 7576 9084","https://www.timeoutmexico.mx/ciudad-de-mexico/teatro/foro-cultural-bellescene","https://www.facebook.com/ForoBellescene/?fref=mentions","ForoBellescene","","socialbellescene@gmail.com",-99.14793,19.39782,0,"italiano","http://sic.gob.mx/ficha.php?table=teatro&table_id=918","2021-09-21 13:11:44-05"
483,"Teatro 11 de Julio","1960-04-29","Sindicato de Trabajadores Mineros, Metalúrgicos y Similares de la R.M.",9,"Ciudad de México",14,"Benito Juárez",1,"Benito Juárez","Doctor Vértiz 668","Col. Narvarte","03020","55 5538 2964","http://cdmxtravel.com/es/lugares/teatro-11-de-julio.html","","","","",-99.15069,19.39661,533,"italiano","http://sic.gob.mx/ficha.php?table=teatro&table_id=483","2021-09-27 11:39:36-05"
342,"Teatro de la Comedia - Wilberto Cantón","1983-04-13","Sociedad General de Escritores de México SOGEM",9,"Ciudad de México",14,"Benito Juárez",1,"Benito Juárez","José María Velasco 59","Col. San José Insurgentes","03900","55 5660 8590","https://www.sogem.org/teatrowilbertocanton","https://www.facebook.com/pages/Teatro%20Wilberto%20Canton/440058462798614/","","","teatrodelacomedia@gmail.com; jgutierrez@sogem.org.mx",-99.18653,19.36422,370,"italiano","http://sic.gob.mx/ficha.php?table=teatro&table_id=342","2021-09-28 08:28:35-05"
1060,"Foro de la Casa de Cultura Zacahuitzco","1980-03-01","Alcaldía Benito Juárez",9,"Ciudad de México",14,"Benito Juárez",1,"Benito Juárez","Valdivia 87 ","Col. Zacahuitzco","03550","55 2065 1616","","https://www.facebook.com/profile.php?id=100089897811364","","https://www.instagram.com/c.c._zacahuitzco/","c.c.zacahuitzco@gmail.com",-99.13699,19.3735,50,"Italiano","http://sic.gob.mx/ficha.php?table=teatro&table_id=1060","2025-06-06 13:03:11-06"
424,"Teatro Polyforum","1971-12-15","Polyforum Cultural Siqueiros, A.C.",9,"Ciudad de México",14,"Benito Juárez",1,"Benito Juárez","Insurgentes Sur 701 esq. Filadelfia","Col. Nápoles","03810","55 5536 4520 ext. 102","http://cdmxtravel.com/es/lugares/polyforum-cultural-siqueiros.html","","","","dralfredosuarez@polyforumsiqueiros.com",-99.1734,19.39333,550,"arena","http://sic.gob.mx/ficha.php?table=teatro&table_id=424","2021-09-29 05:57:16-05"
689,"Foro de los Hermanos Soler","1957-01-01","Gobierno del Distrito Federal/Delegación Benito Juárez",9,"Ciudad de México",14,"Benito Juárez",1,"Benito Juárez","Miguel Laurent entre Dr. Vertiz y División del Norte","Col. Santa Cruz Atoyac","03310","55 5422 5300 ext. 1293","","","","","",-99.15607,19.37314,0,"","http://sic.gob.mx/ficha.php?table=teatro&table_id=689","2021-09-21 07:19:49-05"
494,"Foro Contigo América","1990-08-18","Contigo America Institución Teatral Independiente, A.C. ",9,"Ciudad de México",14,"Benito Juárez",1,"Benito Juárez","Arizona 156","Col. Nápoles","03810","55 5669 3589","http://contigoamerica.org.mx","https://www.facebook.com/ContigoAmerica","","","contigoamerica@yahoo.com.mx",-99.18057,19.39281,90,"multimodal","http://sic.gob.mx/ficha.php?table=teatro&table_id=494","2021-09-20 12:18:42-05"
521,"Nuevo Teatro  Libanés","1986-01-23","Centro Libanés, A.C.",9,"Ciudad de México",14,"Benito Juárez",1,"Benito Juárez","Barranca del Muerto esq. 2 de Abril","Col. Crédito Constructor","03940","555801 3165","https://carteleradeteatro.mx/teatro/sur/teatro-libanes/","","","","",-99.18054,19.36308,535,"italiano","http://sic.gob.mx/ficha.php?table=teatro&table_id=521","2022-07-25 06:38:29-05"
846,"Foro El Cubo","2015-06-04","Compañía Perro Teatro",9,"Ciudad de México",14,"Benito Juárez",1,"Benito Juárez","Lic. Grajales Robles 28 esq. Adolfo Prieto y Mier y Pesado","Col. Del Valle","03103","55 3389 0767","https://www.timeoutmexico.mx/ciudad-de-mexico/teatro/foro-el-cubo","https://www.facebook.com/ForoelCubo2015/","foroelcubo","","perroteatro@yahoo.com; foroelcubo@gmail.com",-99.16431,19.40007,40,"multimodal","http://sic.gob.mx/ficha.php?table=teatro&table_id=846","2021-09-21 13:05:14-05"
839,"Amacalone. Teatro de arte dramático","2013-07-01","",9,"Ciudad de México",14,"Benito Juárez",1,"Benito Juárez","Soria 65","Col. Alamos","03400","55 1360 6384","","https://www.facebook.com/FEITHM/","","","amacalone@hotmail.com",-99.14324,19.39779,0,"","http://sic.gob.mx/ficha.php?table=teatro&table_id=839","2021-09-20 11:46:38-05"
484,"Teatrín Pedro Infante","2000-10-21","Asociación Nacional de Actores (ANDA)",9,"Ciudad de México",14,"Benito Juárez",1,"Benito Juárez","Petén 45 Nte.","Col. Narvarte","03020","55 5519 3507","","","","","iasoler@institutoandressoler.com",-99.15194,19.40237,0,"italiano","http://sic.gob.mx/ficha.php?table=teatro&table_id=484","2021-07-09 15:17:47-05"
811,"El Telón de Asfalto","1995-03-14","",9,"Ciudad de México",14,"Benito Juárez",1,"Benito Juárez","Perpetua 4","Col. San José Insurgentes","03900","55 5615 0598 ","http://www.telondeasfalto.com.mx/","https://www.facebook.com/telondeasfalto/","TELONDEASFALTO","","info@telondeasfalto.com.mx",-99.18243,19.36606,200,"","http://sic.gob.mx/ficha.php?table=teatro&table_id=811","2021-09-21 06:10:16-05"
509,"Foro al aire libre Gabriel Figueroa","2012-11-08","Secretaría de Cultura/Cineteca Nacional",9,"Ciudad de México",14,"Benito Juárez",1,"Benito Juárez","Av. México Coyoacán 389 ","Col. Xoco","03330","55 4155 1200","https://www.cinetecanacional.net/controlador.php?opcion=FoAL","https://www.facebook.com/CinetecaMexico/","","","info@cinetecanacional.net",-99.16475,19.36047,600,"frontal","http://sic.gob.mx/ficha.php?table=teatro&table_id=509","2021-11-11 11:38:30-06"
431,"Foro Cultural San Simón","1989-05-06","Alcaldía  Benito Juárez/Coordinación de Cultura/Subdirección de Derechos Culturales Recreativos y Educativos",9,"Ciudad de México",14,"Benito Juárez",1,"Benito Juárez","Parque Pascual Ortiz Rubio s/n entre Centenario y Juan Escutia","Col. San Simón Ticumác","03660","55 5609 0753","https://inba.gob.mx/recinto/485","https://www.facebook.com/ForoCulturalSanSimonABJ?mibextid=ZbWKwL","https://twitter.com/ritamobu","foro.cultural.san.simonabj y ritamobu69","foroculturalbj@gmail.com",-99.14328,19.37473,150,"italiano","http://sic.gob.mx/ficha.php?table=teatro&table_id=431","2024-06-05 10:21:41-06"
389,"Sala Julián Carrillo","1976-10-11","UNAM/Radio UNAM",9,"Ciudad de México",14,"Benito Juárez",1,"Benito Juárez","Adolfo Prieto 133","Col. del Valle","03100","55 5623 3281","http://www.radiounam.unam.mx/","https://www.facebook.com/radiounam?fref=ts","","","radio@unam.com",-99.16608,19.39834,180,"italiano","http://sic.gob.mx/ficha.php?table=teatro&table_id=389","2021-09-21 13:54:57-05"
522,"Teatro de los Insurgentes","1953-04-30","Televisa, S.A. de C.V.",9,"Ciudad de México",14,"Benito Juárez",1,"Benito Juárez","Insurgentes Sur 1587","Col. San José Insurgentes","03900","55 5598 6894","http://cdmxtravel.com/es/lugares/teatro-de-los-insurgentes.html","https://www.facebook.com/teatroinsurgentes/","","","teatroinsurgentes@prodigy.net.mx",-99.18242,19.36408,959,"italiano","http://sic.gob.mx/ficha.php?table=teatro&table_id=522","2021-09-28 08:42:22-05"
204,"Teatro Julio Prieto","1960-05-19","Instituto Mexicano del Seguro Social (IMSS)",9,"Ciudad de México",14,"Benito Juárez",1,"Benito Juárez","Av. Xola 809 esq. Nicolás San Juan","Col. Del Valle","03100","55 5639 9816","","https://www.facebook.com/TeatroXolaJulioPrieto/","","","eric.santos@imss.gob.mx",-99.16114,19.39602,501,"Italiano","http://sic.gob.mx/ficha.php?table=teatro&table_id=204","2021-09-28 09:02:17-05"
871,"Foro La Teatrería","2015-02-25","",9,"Ciudad de México",15,"Cuauhtémoc",0,"Total del Municipio","Tabasco 152","Col. Roma","","(55) 5207 3234","http://lateatreria.com","","","","shoshana@lateatreria.com",-99.15931,19.41919,100,"italiano","http://sic.gob.mx/ficha.php?table=teatro&table_id=871","2017-03-13 13:57:55-06"
759,"Foro SALA Club","1000-01-01","",9,"Ciudad de México",15,"Cuauhtémoc",1,"Cuauhtémoc","Puebla 186","Col. Roma Norte","06721","55 5511 5946","http://sala.club","","","","contrataciones@sala.club.com; prensa@sala.club.com",-99.16369,19.42199,0,"","http://sic.gob.mx/ficha.php?table=teatro&table_id=759","2022-12-15 03:25:45-06"
380,"Foro El Círculo Teatral ","2004-04-07","El Círculo Teatral, S.C.",9,"Ciudad de México",15,"Cuauhtémoc",1,"Cuauhtémoc","Veracruz 107","Col. Condesa","06140","55 5553 1383","","","","","elcirculoteatral@hotmail.com",-99.17233,19.41558,70,"","http://sic.gob.mx/ficha.php?table=teatro&table_id=380","2022-09-01 04:29:02-05"
1003,"Foro Sugar","2011-01-01","Centro Cultural Sylvia Pasquel",9,"Ciudad de México",15,"Cuauhtémoc",1,"Cuauhtémoc","Av. Juan Escutia 96","Col. Condesa","06140","55 5211 4941","https://forosylviapasquel.com/foro-sugar","https://www.facebook.com/foro.pasquel","foropasquel","","foropasquel@hotmail.com",-99.17655,19.41563,55,"frontal","http://sic.gob.mx/ficha.php?table=teatro&table_id=1003","2022-07-08 06:53:56-05"
812,"Foro Nahui Olin","2011-01-01","Centro Cultural Sylvia Pasquel",9,"Ciudad de México",15,"Cuauhtémoc",1,"Cuauhtémoc","Av. Juan Escutia 96","Col. Condesa","06140","55 5211 4941","http://www.centroculturalsylviapasquel.com/NAHUI.html","https://www.facebook.com/foro.pasquel","foropasquel","","foropasquel@hotmail.com; marisol@centroculturalsylviapasquel.com",-99.17655,19.41563,140,"","http://sic.gob.mx/ficha.php?table=teatro&table_id=812","2022-07-08 06:45:53-05"
428,"Teatro Sergio Magaña","1991-07-26","Secretaría de Cultura de la Ciudad de México",9,"Ciudad de México",15,"Cuauhtémoc",1,"Cuauhtémoc","Sor Juana Inés de la Cruz 114","Col. Santa María la Ribera","06400","(55) 5547 0931","http://teatros.cultura.cdmx.gob.mx/foro/teatro-sergio-maga%C3%B1a","https://www.facebook.com/TeatroSergioMagana/","","","teatrosergiomagana@df.gob.mx",-99.16068,19.44529,321,"italiano","http://sic.gob.mx/ficha.php?table=teatro&table_id=428","2019-10-25 07:11:49-05"
902,"Sensorama","2013-01-01","",9,"Ciudad de México",15,"Cuauhtémoc",1,"Cuauhtémoc","Zacatecas 155","Col. Roma Norte","06700","55 1998 2586","http://www.sensorama.mx/","https://www.facebook.com/sensorama.mx/","","","delfinsensorama@gmail.com; preventa.sensorama@gmail.com",-99.16448,19.41324,0,"","http://sic.gob.mx/ficha.php?table=teatro&table_id=902","2020-05-25 15:59:39-05"
837,"Foro Indie Rocks","1000-01-01","Grupo Indie Rocks",9,"Ciudad de México",15,"Cuauhtémoc",1,"Cuauhtémoc","Zacatecas 39","Col. Roma Nte.","06700","55 6394 7745","https://www.indierocks.mx/","https://www.facebook.com/foroindierocks/timeline","indierocks","https://www.instagram.com/indierocksmagazine","",-99.15617,19.41665,1500,"italiano","http://sic.gob.mx/ficha.php?table=teatro&table_id=837","2023-09-27 11:19:55-06"
396,"Teatro del Palacio de Bellas Artes","1934-09-29","Secretaría de Cultura/INBA",9,"Ciudad de México",15,"Cuauhtémoc",1,"Cuauhtémoc","Av. Juárez 1","Centro","06050","55 8647 6500 exts. 2152, 2153, 2154","http://www.palacio.bellasartes.gob.mx/","","","","gpba.palaciodebellasartes@inba.gob.mx; gerenciapba@inba.gob.mx",-99.14123,19.43566,1590,"Italiano","http://sic.gob.mx/ficha.php?table=teatro&table_id=396","2025-06-06 13:46:45-06"
900,"Foro Lucerna","2013-03-17","",9,"Ciudad de México",15,"Cuauhtémoc",1,"Cuauhtémoc","Lucerna 64","Col. Juárez","06600","55 5535 4178","www.teatromilan.com","facebook.com/TeatroMilanForoLucerna","@ForoLucerna","@teatromilan_forolucerna","info@teatromilanforolucerna.com",-99.15672,19.42996,90,"Italiano","http://sic.gob.mx/ficha.php?table=teatro&table_id=900","2024-10-18 12:28:57-06"
473,"Teatro Jorge Negrete","1957-12-05","Asociación Nacional de Actores (ANDA)",9,"Ciudad de México",15,"Cuauhtémoc",1,"Cuauhtémoc","Manuel Ignacio Altamirano 128","Col. San Rafael","06470","55 5535 2246","","https://www.facebook.com/pages/Teatro%20Jorge%20Negrete%20M%C3%A9xico%20DF/140629062660175/?locale=es_LA","","","jorgenegreteteatro@hotmail.com",-99.1634,19.43493,602,"italiano","http://sic.gob.mx/ficha.php?table=teatro&table_id=473","2023-12-05 10:04:46-06"
249,"Teatro Isabela Corona","1962-02-15","Instituto Mexicano del Seguro Social (IMSS)",9,"Ciudad de México",15,"Cuauhtémoc",1,"Cuauhtémoc","Eje Central Lázaro Cárdenas 445","Col. Unidad Nonoalco-Tlatelolco","06900","(55) 5782 1646","http://fidteatros.com.mx/new_site/teatros/teatro-isabela-corona","","","","chavalone_62@hotmail.com",-99.13767,19.45259,482,"Italiano","http://sic.gob.mx/ficha.php?table=teatro&table_id=249","2018-09-25 13:03:44-05"
770,"Foro del Tejedor","1991-01-01","Cafebrería el Péndulo S.A. de C.V. ",9,"Ciudad de México",15,"Cuauhtémoc",1,"Cuauhtémoc","Alvaro Obregon 86, piso 3 (entre Orizaba y Córdova)","Col. Roma","06700","55 5574 7034","http://forodeltejedor.com","","","","esteban@pendulo.com; xana@pendulo.com",-99.15915,19.41863,114,"","http://sic.gob.mx/ficha.php?table=teatro&table_id=770","2025-06-09 16:59:52-06"
827,"Sala de teatro Así que pasen cinco años","2013-10-24","Telemakia Teatro",9,"Ciudad de México",15,"Cuauhtémoc",1,"Cuauhtémoc","Cacahuamilpa 24","Col. Hipodroma Condesa","","55 6390 2422","http://www.facebook.com/telemakia.heleannejuancristobalcastillo","","","","heleannebs@hotmail.com",-99.16773,19.41528,17,"irregular","http://sic.gob.mx/ficha.php?table=teatro&table_id=827","2021-05-27 04:29:12-05"
748,"Espacio Universitario de Cultura Off Spring","2012-08-27","",9,"Ciudad de México",15,"Cuauhtémoc",1,"Cuauhtémoc","Francisco Pimentel 14 (entre José Rosas Moreno e Ignacio Altamirano)","Col. San Rafael","06470","(55) 5592 0619","","","","","foroffspring@hotmail.com",-99.162,19.43861,300,"","http://sic.gob.mx/ficha.php?table=teatro&table_id=748","2018-08-23 05:25:00-05"
768,"Foro Lenin","1985-01-01","Centro Mexicano de Estudios Culturales y Sociales, A.C.",9,"Ciudad de México",15,"Cuauhtémoc",1,"Cuauhtémoc","Mérida 98 esq. Tabasco","Col. Roma","06700","55 5511 1027, 5514 7865","https://forolenin.com/el-foro/","https://www.facebook.com/Forolenin/","","forolenin","forolenin@gmail.com; info@forolenin.gom",-99.15719,19.41958,220,"","http://sic.gob.mx/ficha.php?table=teatro&table_id=768","2024-12-02 13:30:33-06"
813,"Foro Claudia","2011-01-01","Centro Cultural Sylvia Pasquel",9,"Ciudad de México",15,"Cuauhtémoc",1,"Cuauhtémoc","Av. Juan Escutia 96","Col. Condesa","06140","(55) 5211 4941","https://forosylviapasquel.com/foro-claudia","https://www.facebook.com/foro.pasquel","foropasquel","","foropasquel@hotmail.com; marisol@centroculturalsylviapasquel.com",-99.17655,19.41563,55,"","http://sic.gob.mx/ficha.php?table=teatro&table_id=813","2022-07-08 06:48:27-05"
476,"Anfiteatro Simón Bolívar","1910-09-22","UNAM/Antiguo Colegio de San Ildefonso",9,"Ciudad de México",15,"Cuauhtémoc",1,"Cuauhtémoc","Justo Sierra 16 ","Centro","06000","55 5702 4221","https://culturaunam.mx/vertice/index.php/venue/anfiteatro-simon-bolivar/","","","","anfi@servidorunam.com; anfi@unam.mx",-99.13101,19.4358,457,"italiano","http://sic.gob.mx/ficha.php?table=teatro&table_id=476","2025-05-14 13:31:16-06"
1002,"Teatro Varsovia","2022-03-03","",9,"Ciudad de México",15,"Cuauhtémoc",1,"Cuauhtémoc","Varsovia 9","Col. Juárez ","06600","55 4894 9259","","https://www.facebook.com/teatrovarsovia","teatrovarsovia","","teatrovarsovia@gmail.com",-99.16891,19.42565,180,"italiano","http://sic.gob.mx/ficha.php?table=teatro&table_id=1002","2022-03-04 08:28:21-06"
452,"Teatro Ciudadela","1954-11-01","Subdirección de Acción Cultural del ISSSTE/Sindicato Nacional de los Trabajadores",9,"Ciudad de México",15,"Cuauhtémoc",1,"Cuauhtémoc","Tres Guerras 9","Centro","06040","","","","","","",-99.1509,19.43016,422,"italiano","http://sic.gob.mx/ficha.php?table=teatro&table_id=452","2025-05-27 12:54:47-06"
841,"Bajo Circuito Multiforo Urbano","2014-10-01","Grupo Litoral",9,"Ciudad de México",15,"Cuauhtémoc",1,"Cuauhtémoc","Bajo Puente de Circuito Interior s/n esq. Juan Escutia","Col. Condesa","06140","55 5211 7631","","https://www.facebook.com/pages/Bajo-Circuito/346862878812488?sk=timeline","arterialmx","https://www.instagram.com/bajocircuito/?hl=es","infobc@arterial.mx",-99.17939,19.41622,0,"multimodal","http://sic.gob.mx/ficha.php?table=teatro&table_id=841","2024-10-29 11:53:23-06"
815,"LAB TRECE","2012-07-11","",9,"Ciudad de México",15,"Cuauhtémoc",1,"Cuauhtémoc","Isabel la Católica 13, piso 5","Centro","06000","","","","","","",-99.13617,19.43462,60,"","http://sic.gob.mx/ficha.php?table=teatro&table_id=815","2017-03-02 13:00:47-06"
505,"Teatro Sala Chopin","1952-04-25","Grupo Gomo, Coorporativo de la Sala Chopin",9,"Ciudad de México",15,"Cuauhtémoc",1,"Cuauhtémoc","Álvaro Obregón 302","Col. Roma","06700","(55) 5211 3257","http://www.salachopin.com","","","","servicios@salachopin.com",-99.16932,19.41619,285,"italiano","http://sic.gob.mx/ficha.php?table=teatro&table_id=505","2017-02-28 11:26:38-06"
883,"Centro Cultural de las Artes Escénicas Teatro María Rojo","1964-11-21","Secretaría de Cultura del Gobierno Federal",9,"Ciudad de México",15,"Cuauhtémoc",1,"Cuauhtémoc","Manuel González 2a. Secc. atrás del metro Tlatelolco","Unidad Habitacional Nonoalco Tlatelolco","06900","(55) 4335 8095","https://www.facebook.com/Centro-Cultural-de-las-Artes-Esc%C3%A9nicas-Teatro-Mar%C3%ADa-Rojo-384096345041303/photos","","","","barbaracardonamatias@hotmail.com",-99.14277,19.45512,0,"","http://sic.gob.mx/ficha.php?table=teatro&table_id=883","2017-02-27 12:57:49-06"
269,"Centro Cultural El Foco (antes Foro de la Comedia)","1993-05-31","Centro Cultural El Foco (antes Foro de la Comedia) Independiente",9,"Ciudad de México",15,"Cuauhtémoc",1,"Cuauhtémoc","Tlacotalpan 16","Col. Roma Sur","06700","(55) 5574 9011","http://teatrodelarbol.com","","","","contactoelfoco@gmail.com",-99.16688,19.40875,81,"isabelino","http://sic.gob.mx/ficha.php?table=teatro&table_id=269","2017-03-02 11:59:01-06"
438,"Centro Cultural de las Artes Escénicas Ernesto Gómez Cruz","1996-10-12","Alcaldía Cuauhtémoc/Centro Social y Deportivo Club Antonio Caso",9,"Ciudad de México",15,"Cuauhtémoc",1,"Cuauhtémoc","Av. Paseo de la Reforma Norte 668, 3ra sección","Col. Tlatelolco","06900","55 4335 8006 ext. 109","https://www.facebook.com/pages/Centro-Cultural-de-las-Artes-Esc%C3%A9nicas-Ernesto-G%C3%B3mez-Cruz/293696827331257","","","","centroculturalernestogomezcruz@yahoo.com.mx",-99.13492,19.44915,425,"italiano","http://sic.gob.mx/ficha.php?table=teatro&table_id=438","2023-02-24 07:13:54-06"
683,"Foro A Poco No. Teatro Cabaret","2009-11-11","Secretaría de Cultura de la Ciudad de México/Coordinación del Sistema de Teatros",9,"Ciudad de México",15,"Cuauhtémoc",1,"Cuauhtémoc","República de Cuba 49 entre República de Chile y Allende","Centro Histórico","06010","(55) 5130 5740 ext. 2018","http://teatros.cultura.cdmx.gob.mx/foro/foro-poco-no","","","","cst.foroapocono@gmail.com",-99.13733,19.43716,60,"italiano","http://sic.gob.mx/ficha.php?table=teatro&table_id=683","2018-04-11 08:50:10-05"
814,"Foro La Pandilla","2011-01-01","Centro Cultural Sylvia Pasquel",9,"Ciudad de México",15,"Cuauhtémoc",1,"Cuauhtémoc","Av. Juan Escutia 96","Col. Condesa","06400","(55) 5211 4941","","","","","foropasquel@hotmail.com; marisol@centroculturalsylviapasquel.com",-99.17655,19.41563,50,"","http://sic.gob.mx/ficha.php?table=teatro&table_id=814","2018-08-03 05:50:27-05"
312,"Teatro FSTSE","2000-10-23","Federación de Sindicatos de Trabajadores al Servicio del Estado",9,"Ciudad de México",15,"Cuauhtémoc",1,"Cuauhtémoc","Antonio Caso 35","Col. Tabacalera","06470","(55) 5128 1600","","","","","rocambra@gmail.com",-99.15656,19.43428,573,"italiano","http://sic.gob.mx/ficha.php?table=teatro&table_id=312","2018-09-26 09:08:56-05"
255,"Teatro Auditorio Congreso del Trabajo","1976-09-01","Congreso del Trabajo",9,"Ciudad de México",15,"Cuauhtémoc",1,"Cuauhtémoc","Av. Ricardo Flores Magón 44,  piso 7","Col. Guerrero","06300","55 5583 7787","","https://www.facebook.com/profile.php?id=220352387998155&paipv=0&eav=AfZqDMo3-x0GvOXYy5mgfb5QWI7D-wpDRNgWArsCILCFZMFmnGyFASGTRgfYwDHQLfE&_rdr","","","oficialmayor@eninfinitum.com",-99.14269,19.45134,710,"Italiano","http://sic.gob.mx/ficha.php?table=teatro&table_id=255","2023-10-11 04:54:59-06"
463,"Teatro Lotería Nacional","1974-06-01","Lotería Nacional para la Asistencia Pública",9,"Ciudad de México",15,"Cuauhtémoc",1,"Cuauhtémoc","Av. Hidalgo 130","Col. Tabacalera","06030","(55) 5140 7000 exts. 3605, 3140, 3141","http://www.lotenal.gob.mx","","","","correo@lotenal.gob.mx",-99.14877,19.43761,214,"italiano","http://sic.gob.mx/ficha.php?table=teatro&table_id=463","2017-03-01 11:15:54-06"
